<?xml version="1.0" encoding="UTF-8"?>
<kml xmlns="http://www.opengis.net/kml/2.2">
  <Document>
    <name>Parler</name>
    <open>1</open>





    <Style id="ys">
      <IconStyle>
<scale>0.2</scale>
        <Icon>
          <href>http://maps.google.com/mapfiles/kml/paddle/wht-blank-lv.png
          </href>
		
        </Icon>
      </IconStyle>
    </Style>


    <Style id="rs">
      <IconStyle>
        <Icon>
          <href>https://maps.google.com/mapfiles/kml/pushpin/red-pushpin.png
          </href>
        </Icon>
      </IconStyle>
      <BalloonStyle>
        <text>$[video]</text>
      </BalloonStyle>
    </Style>





      <Placemark>
	<styleUrl>#ys</styleUrl>
        <name>0ILtbKNKST48</name>
        <Point><coordinates>-77.0100991489,38.8897945635,0</coordinates></Point>
      </Placemark>
	

      <Placemark>
	<styleUrl>#ys</styleUrl>
        <name>0RkqluQmLWCt</name>
        <Point><coordinates>-77.0082995314,38.8906980954,0</coordinates></Point>
      </Placemark>
	

      <Placemark>
	<styleUrl>#ys</styleUrl>
        <name>4CgvVPwmomjo</name>
        <Point><coordinates>-77.0103030752,38.8898922766,0</coordinates></Point>
      </Placemark>
	

      <Placemark>
	<styleUrl>#ys</styleUrl>
        <name>50XYMR09ys3v</name>
        <Point><coordinates>-77.0099094448,38.890108893,0</coordinates></Point>
      </Placemark>
	

      <Placemark>
	<styleUrl>#ys</styleUrl>
        <name>58lWitKHBAbq</name>
        <Point><coordinates>-77.0105080618,38.8897949991,0</coordinates></Point>
      </Placemark>
	

      <Placemark>
	<styleUrl>#ys</styleUrl>
        <name>5Yf5w5tiLIDB</name>
        <Point><coordinates>-77.0071911652,38.8899997587,0</coordinates></Point>
      </Placemark>
	

	      <Placemark>
		<name>6FY6c0d8IMjz</name>
		<styleUrl>#rs</styleUrl>
		<Point><coordinates>-77.0103046401,38.8896980783,0</coordinates></Point>
		<description>https://www.youtube.com/embed/or1L4ZVNghI</description>
	      </Placemark>
		

	      <Placemark>
		<name>6JbG6I0FrJhn</name>
		<styleUrl>#rs</styleUrl>
		<Point><coordinates>-77.0103050569,38.889793831,0</coordinates></Point>
		<description>https://www.youtube.com/embed/V617FSr4bOw</description>
	      </Placemark>
		

      <Placemark>
	<styleUrl>#ys</styleUrl>
        <name>8dLyJxfRn3cI</name>
        <Point><coordinates>-77.010297611,38.8899937484,0</coordinates></Point>
      </Placemark>
	

      <Placemark>
	<styleUrl>#ys</styleUrl>
        <name>8fGidwR3eLor</name>
        <Point><coordinates>-77.0103013017,38.8906095173,0</coordinates></Point>
      </Placemark>
	

      <Placemark>
	<styleUrl>#ys</styleUrl>
        <name>9quKY3UvWlvg</name>
        <Point><coordinates>-77.0108051964,38.8894910698,0</coordinates></Point>
      </Placemark>
	

      <Placemark>
	<styleUrl>#ys</styleUrl>
        <name>A6nbSYGTQ2hW</name>
        <Point><coordinates>-77.0104927962,38.8901065012,0</coordinates></Point>
      </Placemark>
	

      <Placemark>
	<styleUrl>#ys</styleUrl>
        <name>AdArLzDy1ObS</name>
        <Point><coordinates>-77.0101914844,38.8897052548,0</coordinates></Point>
      </Placemark>
	

      <Placemark>
	<styleUrl>#ys</styleUrl>
        <name>B0FxCurP0DbS</name>
        <Point><coordinates>-77.0102996301,38.8901986796,0</coordinates></Point>
      </Placemark>
	

      <Placemark>
	<styleUrl>#ys</styleUrl>
        <name>BKzCTrgUan1v</name>
        <Point><coordinates>-77.0104960029,38.889695692,0</coordinates></Point>
      </Placemark>
	

      <Placemark>
	<styleUrl>#ys</styleUrl>
        <name>C5u7WZz0ibfe</name>
        <Point><coordinates>-77.010296057,38.8894993334,0</coordinates></Point>
      </Placemark>
	

	      <Placemark>
		<name>CE7LhOl22vJ9</name>
		<styleUrl>#rs</styleUrl>
		<Point><coordinates>-77.0075923795,38.8899985226,0</coordinates></Point>
		<description>https://www.youtube.com/embed/cO-Pp7mtT8Y</description>
	      </Placemark>
		

      <Placemark>
	<styleUrl>#ys</styleUrl>
        <name>CNrWBNcfCr8w</name>
        <Point><coordinates>-77.0102977899,38.8904071229,0</coordinates></Point>
      </Placemark>
	

      <Placemark>
	<styleUrl>#ys</styleUrl>
        <name>HErrRC01EIav</name>
        <Point><coordinates>-77.0093972277,38.8903904329,0</coordinates></Point>
      </Placemark>
	

	      <Placemark>
		<name>HS34fpbzqg2b</name>
		<styleUrl>#rs</styleUrl>
		<Point><coordinates>-77.0079066016,38.8906908272,0</coordinates></Point>
		<description>https://www.youtube.com/embed/C-ZPAGrhw6I</description>
	      </Placemark>
		

      <Placemark>
	<styleUrl>#ys</styleUrl>
        <name>HX07G51QKPEx</name>
        <Point><coordinates>-77.0103055185,38.8900967689,0</coordinates></Point>
      </Placemark>
	

	      <Placemark>
		<name>IOqrjPvbQx6s</name>
		<styleUrl>#rs</styleUrl>
		<Point><coordinates>-77.0102959051,38.8897070492,0</coordinates></Point>
		<description>https://www.youtube.com/embed/o2titsRYSkg</description>
	      </Placemark>
		

	      <Placemark>
		<name>Kmm034ViQJyl</name>
		<styleUrl>#rs</styleUrl>
		<Point><coordinates>-77.0106048704,38.8897998407,0</coordinates></Point>
		<description>https://www.youtube.com/embed/HYvH2XiPuLU</description>
	      </Placemark>
		

	      <Placemark>
		<name>LhPiDTMhUSGL</name>
		<styleUrl>#rs</styleUrl>
		<Point><coordinates>-77.0099950564,38.8900050806,0</coordinates></Point>
		<description>https://www.youtube.com/embed/UfIlXpLsY1g</description>
	      </Placemark>
		

	      <Placemark>
		<name>OcH04ImVxWii</name>
		<styleUrl>#rs</styleUrl>
		<Point><coordinates>-77.0093074702,38.8903062372,0</coordinates></Point>
		<description>https://www.youtube.com/embed/t421erWVC3c</description>
	      </Placemark>
		

	      <Placemark>
		<name>QjvAsHJ5o501</name>
		<styleUrl>#rs</styleUrl>
		<Point><coordinates>-77.0082008532,38.891294883,0</coordinates></Point>
		<description>https://www.youtube.com/embed/APiC5kzM_yg</description>
	      </Placemark>
		

      <Placemark>
	<styleUrl>#ys</styleUrl>
        <name>RfmiOsck22e4</name>
        <Point><coordinates>-77.0105987921,38.89020474,0</coordinates></Point>
      </Placemark>
	

      <Placemark>
	<styleUrl>#ys</styleUrl>
        <name>UJcZiDdVVVUG</name>
        <Point><coordinates>-77.0071017788,38.8893996958,0</coordinates></Point>
      </Placemark>
	

      <Placemark>
	<styleUrl>#ys</styleUrl>
        <name>Wp7B67DcwpQi</name>
        <Point><coordinates>-77.0082015947,38.8913014377,0</coordinates></Point>
      </Placemark>
	

      <Placemark>
	<styleUrl>#ys</styleUrl>
        <name>WvNy0mY8LFTq</name>
        <Point><coordinates>-77.0080936213,38.8897928969,0</coordinates></Point>
      </Placemark>
	

      <Placemark>
	<styleUrl>#ys</styleUrl>
        <name>Xg6g1UKjAOdd</name>
        <Point><coordinates>-77.0089967314,38.8894054156,0</coordinates></Point>
      </Placemark>
	

      <Placemark>
	<styleUrl>#ys</styleUrl>
        <name>Yv60aO8hsb4H</name>
        <Point><coordinates>-77.0073988452,38.8902910733,0</coordinates></Point>
      </Placemark>
	

      <Placemark>
	<styleUrl>#ys</styleUrl>
        <name>adtV4zbkXr5x</name>
        <Point><coordinates>-77.0103938399,38.8901942085,0</coordinates></Point>
      </Placemark>
	

      <Placemark>
	<styleUrl>#ys</styleUrl>
        <name>ayocSVsXW3h3</name>
        <Point><coordinates>-77.0104931101,38.890101173,0</coordinates></Point>
      </Placemark>
	

      <Placemark>
	<styleUrl>#ys</styleUrl>
        <name>b5lCVIHnrm2q</name>
        <Point><coordinates>-77.0103954808,38.8899994045,0</coordinates></Point>
      </Placemark>
	

      <Placemark>
	<styleUrl>#ys</styleUrl>
        <name>bTZISxkK39sH</name>
        <Point><coordinates>-77.0087000951,38.8897018727,0</coordinates></Point>
      </Placemark>
	

      <Placemark>
	<styleUrl>#ys</styleUrl>
        <name>eGOoR3I08FkK</name>
        <Point><coordinates>-77.0107022041,38.8901956081,0</coordinates></Point>
      </Placemark>
	

      <Placemark>
	<styleUrl>#ys</styleUrl>
        <name>esDUnWVLgG6n</name>
        <Point><coordinates>-77.0073988748,38.8897927286,0</coordinates></Point>
      </Placemark>
	

      <Placemark>
	<styleUrl>#ys</styleUrl>
        <name>fT9hBhlaFgZd</name>
        <Point><coordinates>-77.0105098923,38.8897083998,0</coordinates></Point>
      </Placemark>
	

      <Placemark>
	<styleUrl>#ys</styleUrl>
        <name>fayNJbjcqXWg</name>
        <Point><coordinates>-77.007191461,38.8901938724,0</coordinates></Point>
      </Placemark>
	

      <Placemark>
	<styleUrl>#ys</styleUrl>
        <name>fhqU4rQ4ZFzO</name>
        <Point><coordinates>-77.0100054,38.8899084,0</coordinates></Point>
      </Placemark>
	

      <Placemark>
	<styleUrl>#ys</styleUrl>
        <name>fqMErkRVItV0</name>
        <Point><coordinates>-77.0105958354,38.8901970677,0</coordinates></Point>
      </Placemark>
	

      <Placemark>
	<styleUrl>#ys</styleUrl>
        <name>g5Yl8ERzrXxe</name>
        <Point><coordinates>-77.0100996386,38.8905938818,0</coordinates></Point>
      </Placemark>
	

      <Placemark>
	<styleUrl>#ys</styleUrl>
        <name>hg5pS8dNppFa</name>
        <Point><coordinates>-77.0100984762,38.8897916188,0</coordinates></Point>
      </Placemark>
	

      <Placemark>
	<styleUrl>#ys</styleUrl>
        <name>hgQYuqIrZTls</name>
        <Point><coordinates>-77.0105949324,38.889993103,0</coordinates></Point>
      </Placemark>
	

      <Placemark>
	<styleUrl>#ys</styleUrl>
        <name>hr06Kn7hkUP1</name>
        <Point><coordinates>-77.0105961652,38.8896892317,0</coordinates></Point>
      </Placemark>
	

      <Placemark>
	<styleUrl>#ys</styleUrl>
        <name>jNECpFrRhbpg</name>
        <Point><coordinates>-77.0103096538,38.8901079225,0</coordinates></Point>
      </Placemark>
	

      <Placemark>
	<styleUrl>#ys</styleUrl>
        <name>k2X98xAHmHWa</name>
        <Point><coordinates>-77.0094050629,38.8904026516,0</coordinates></Point>
      </Placemark>
	

      <Placemark>
	<styleUrl>#ys</styleUrl>
        <name>kau2NI4P6n48</name>
        <Point><coordinates>-77.0102989849,38.8902946217,0</coordinates></Point>
      </Placemark>
	

      <Placemark>
	<styleUrl>#ys</styleUrl>
        <name>m4XCINGgSKee</name>
        <Point><coordinates>-77.0104004327,38.8901000004,0</coordinates></Point>
      </Placemark>
	

      <Placemark>
	<styleUrl>#ys</styleUrl>
        <name>mnp38uv7p0Tz</name>
        <Point><coordinates>-77.0105974124,38.8901996421,0</coordinates></Point>
      </Placemark>
	

      <Placemark>
	<styleUrl>#ys</styleUrl>
        <name>ns9EbTf56zJM</name>
        <Point><coordinates>-77.0106003931,38.8898909404,0</coordinates></Point>
      </Placemark>
	

      <Placemark>
	<styleUrl>#ys</styleUrl>
        <name>pN3q5NvwoghI</name>
        <Point><coordinates>-77.010304575,38.8896964449,0</coordinates></Point>
      </Placemark>
	

      <Placemark>
	<styleUrl>#ys</styleUrl>
        <name>qGwtu6qUHfjy</name>
        <Point><coordinates>-77.0104009039,38.8901093185,0</coordinates></Point>
      </Placemark>
	

      <Placemark>
	<styleUrl>#ys</styleUrl>
        <name>tb76lsT2Wakl</name>
        <Point><coordinates>-77.0101984451,38.8898081218,0</coordinates></Point>
      </Placemark>
	

      <Placemark>
	<styleUrl>#ys</styleUrl>
        <name>uu11kCrXZa78</name>
        <Point><coordinates>-77.0107966806,38.8894982234,0</coordinates></Point>
      </Placemark>
	

      <Placemark>
	<styleUrl>#ys</styleUrl>
        <name>xy2JnbdsJG5q</name>
        <Point><coordinates>-77.0101997235,38.8898947771,0</coordinates></Point>
      </Placemark>
	

      <Placemark>
	<styleUrl>#ys</styleUrl>
        <name>ySO9aSEvs0Fx</name>
        <Point><coordinates>-77.0100950456,38.8899070827,0</coordinates></Point>
      </Placemark>
	

      <Placemark>
	<styleUrl>#ys</styleUrl>
        <name>2bujYLrW7vAX</name>
        <Point><coordinates>-77.0105083615,38.8905075178,0</coordinates></Point>
      </Placemark>
	

      <Placemark>
	<styleUrl>#ys</styleUrl>
        <name>3ViaXA7t2cYc</name>
        <Point><coordinates>-77.0101068681,38.889590355,0</coordinates></Point>
      </Placemark>
	

      <Placemark>
	<styleUrl>#ys</styleUrl>
        <name>44VAasWbJ4Bh</name>
        <Point><coordinates>-77.0079900968,38.8898902795,0</coordinates></Point>
      </Placemark>
	

      <Placemark>
	<styleUrl>#ys</styleUrl>
        <name>4nZvifrR6Gb5</name>
        <Point><coordinates>-77.0094924025,38.8905007581,0</coordinates></Point>
      </Placemark>
	

	      <Placemark>
		<name>55IZysHw38wO</name>
		<styleUrl>#rs</styleUrl>
		<Point><coordinates>-77.0101002062,38.8898944665,0</coordinates></Point>
		<description>https://www.youtube.com/embed/JaD8DcKBFr8</description>
	      </Placemark>
		

      <Placemark>
	<styleUrl>#ys</styleUrl>
        <name>5an2kTUFQs2t</name>
        <Point><coordinates>-77.0088087911,38.8899051685,0</coordinates></Point>
      </Placemark>
	

      <Placemark>
	<styleUrl>#ys</styleUrl>
        <name>7dlSyXDWtlyA</name>
        <Point><coordinates>-77.0101901129,38.8901096271,0</coordinates></Point>
      </Placemark>
	

	      <Placemark>
		<name>7fckI1220tbu</name>
		<styleUrl>#rs</styleUrl>
		<Point><coordinates>-77.0103034964,38.8900032832,0</coordinates></Point>
		<description>https://www.youtube.com/embed/29_aiqsHO4k</description>
	      </Placemark>
		

      <Placemark>
	<styleUrl>#ys</styleUrl>
        <name>8KdEh2A5hBi1</name>
        <Point><coordinates>-77.0102056004,38.8899071693,0</coordinates></Point>
      </Placemark>
	

	      <Placemark>
		<name>8cSaamVcsMri</name>
		<styleUrl>#rs</styleUrl>
		<Point><coordinates>-77.0093067004,38.8903063417,0</coordinates></Point>
		<description>https://www.youtube.com/embed/rUlfaPrzdag</description>
	      </Placemark>
		

      <Placemark>
	<styleUrl>#ys</styleUrl>
        <name>A8Jiah39MrVY</name>
        <Point><coordinates>-77.0103929586,38.8898909573,0</coordinates></Point>
      </Placemark>
	

	      <Placemark>
		<name>AYijYnzI0Gbr</name>
		<styleUrl>#rs</styleUrl>
		<Point><coordinates>-77.0072079732,38.889895829,0</coordinates></Point>
		<description>https://www.youtube.com/embed/sQ5LeskZ2WY</description>
	      </Placemark>
		

	      <Placemark>
		<name>AwME4HLA6vtW</name>
		<styleUrl>#rs</styleUrl>
		<Point><coordinates>-77.0090086288,38.8904995352,0</coordinates></Point>
		<description>https://www.youtube.com/embed/Cky2qUrM1ww</description>
	      </Placemark>
		

      <Placemark>
	<styleUrl>#ys</styleUrl>
        <name>DJzdPcAuKKwU</name>
        <Point><coordinates>-77.0100083559,38.8899996151,0</coordinates></Point>
      </Placemark>
	

      <Placemark>
	<styleUrl>#ys</styleUrl>
        <name>DLj1sth1JqF4</name>
        <Point><coordinates>-77.0105854406,38.8896789258,0</coordinates></Point>
      </Placemark>
	

      <Placemark>
	<styleUrl>#ys</styleUrl>
        <name>DX3RBg66JdtR</name>
        <Point><coordinates>-77.0104008032,38.8900069035,0</coordinates></Point>
      </Placemark>
	

      <Placemark>
	<styleUrl>#ys</styleUrl>
        <name>DzTb5lFGVF6I</name>
        <Point><coordinates>-77.0102015943,38.8903093511,0</coordinates></Point>
      </Placemark>
	

	      <Placemark>
		<name>HSEUpO8N6K1f</name>
		<styleUrl>#rs</styleUrl>
		<Point><coordinates>-77.0105945304,38.8902012153,0</coordinates></Point>
		<description>https://www.youtube.com/embed/ZJrOZ8KFsmc</description>
	      </Placemark>
		

	      <Placemark>
		<name>KAu8c8e4lbDG</name>
		<styleUrl>#rs</styleUrl>
		<Point><coordinates>-77.0103983936,38.8895989703,0</coordinates></Point>
		<description>https://www.youtube.com/embed/S5zRXZkg93s</description>
	      </Placemark>
		

	      <Placemark>
		<name>LD5GrQx0MtsI</name>
		<styleUrl>#rs</styleUrl>
		<Point><coordinates>-77.0102937479,38.8896084762,0</coordinates></Point>
		<description>https://www.youtube.com/embed/VQ2DgfJU5Fw</description>
	      </Placemark>
		

      <Placemark>
	<styleUrl>#ys</styleUrl>
        <name>LQKqUqbhU50v</name>
        <Point><coordinates>-77.0103077315,38.8897039784,0</coordinates></Point>
      </Placemark>
	

	      <Placemark>
		<name>MGIywYHb2lB8</name>
		<styleUrl>#rs</styleUrl>
		<Point><coordinates>-77.0074073806,38.8902908166,0</coordinates></Point>
		<description>https://www.youtube.com/embed/7117bRh3f0Y</description>
	      </Placemark>
		

      <Placemark>
	<styleUrl>#ys</styleUrl>
        <name>OW32M7s2e7u4</name>
        <Point><coordinates>-77.0106958744,38.8900026069,0</coordinates></Point>
      </Placemark>
	

	      <Placemark>
		<name>OqD8bxN4Nnkt</name>
		<styleUrl>#rs</styleUrl>
		<Point><coordinates>-77.0104093509,38.8897003116,0</coordinates></Point>
		<description>https://www.youtube.com/embed/wofQgB9zFZY</description>
	      </Placemark>
		

	      <Placemark>
		<name>Qef9FWcq57B2</name>
		<styleUrl>#rs</styleUrl>
		<Point><coordinates>-77.0107952487,38.8899037523,0</coordinates></Point>
		<description>https://www.youtube.com/embed/KWgyhiqXAyw</description>
	      </Placemark>
		

	      <Placemark>
		<name>QgPXUnbdhx3q</name>
		<styleUrl>#rs</styleUrl>
		<Point><coordinates>-77.0096966624,38.891204703,0</coordinates></Point>
		<description>https://www.youtube.com/embed/qCApZ16sb2I</description>
	      </Placemark>
		

      <Placemark>
	<styleUrl>#ys</styleUrl>
        <name>S2fZ6snkrKpA</name>
        <Point><coordinates>-77.0103001635,38.8894960747,0</coordinates></Point>
      </Placemark>
	

      <Placemark>
	<styleUrl>#ys</styleUrl>
        <name>SVCC538Rh28I</name>
        <Point><coordinates>-77.0100007146,38.8897970101,0</coordinates></Point>
      </Placemark>
	

      <Placemark>
	<styleUrl>#ys</styleUrl>
        <name>TNi4F73rBo86</name>
        <Point><coordinates>-77.0103941438,38.8898992258,0</coordinates></Point>
      </Placemark>
	

      <Placemark>
	<styleUrl>#ys</styleUrl>
        <name>TzNP4slvH8hH</name>
        <Point><coordinates>-77.0091088763,38.8901018349,0</coordinates></Point>
      </Placemark>
	

      <Placemark>
	<styleUrl>#ys</styleUrl>
        <name>U6EA5mgSkTWR</name>
        <Point><coordinates>-77.0107978538,38.8904064447,0</coordinates></Point>
      </Placemark>
	

      <Placemark>
	<styleUrl>#ys</styleUrl>
        <name>UIQNpWMQtfbc</name>
        <Point><coordinates>-77.0106063528,38.8901970874,0</coordinates></Point>
      </Placemark>
	

      <Placemark>
	<styleUrl>#ys</styleUrl>
        <name>VXQewijq1iuR</name>
        <Point><coordinates>-77.0098075262,38.8899992631,0</coordinates></Point>
      </Placemark>
	

      <Placemark>
	<styleUrl>#ys</styleUrl>
        <name>W7VwKbtpEtm0</name>
        <Point><coordinates>-77.009290508,38.8911043061,0</coordinates></Point>
      </Placemark>
	

      <Placemark>
	<styleUrl>#ys</styleUrl>
        <name>WDIGXfQaTUL6</name>
        <Point><coordinates>-77.0103040444,38.8899073835,0</coordinates></Point>
      </Placemark>
	

      <Placemark>
	<styleUrl>#ys</styleUrl>
        <name>XBDMuKJHZYGP</name>
        <Point><coordinates>-77.0090032398,38.8910955661,0</coordinates></Point>
      </Placemark>
	

      <Placemark>
	<styleUrl>#ys</styleUrl>
        <name>akK49L4aRpbh</name>
        <Point><coordinates>-77.0100006697,38.8900951965,0</coordinates></Point>
      </Placemark>
	

      <Placemark>
	<styleUrl>#ys</styleUrl>
        <name>bHrrdOH7wawk</name>
        <Point><coordinates>-77.0103016511,38.8898086235,0</coordinates></Point>
      </Placemark>
	

      <Placemark>
	<styleUrl>#ys</styleUrl>
        <name>cSQU65ufjt3T</name>
        <Point><coordinates>-77.0068967594,38.8899918209,0</coordinates></Point>
      </Placemark>
	

      <Placemark>
	<styleUrl>#ys</styleUrl>
        <name>d7W6peU7P7SA</name>
        <Point><coordinates>-77.0086945817,38.8899055889,0</coordinates></Point>
      </Placemark>
	

      <Placemark>
	<styleUrl>#ys</styleUrl>
        <name>e1gcuShcWxYz</name>
        <Point><coordinates>-77.00990658,38.8900958223,0</coordinates></Point>
      </Placemark>
	

      <Placemark>
	<styleUrl>#ys</styleUrl>
        <name>fpdroYF3R9Fm</name>
        <Point><coordinates>-77.0099077068,38.8900035695,0</coordinates></Point>
      </Placemark>
	

      <Placemark>
	<styleUrl>#ys</styleUrl>
        <name>fxUqhz7cwLRV</name>
        <Point><coordinates>-77.0079973405,38.8910984676,0</coordinates></Point>
      </Placemark>
	

      <Placemark>
	<styleUrl>#ys</styleUrl>
        <name>gDUGUplC0cfv</name>
        <Point><coordinates>-77.010397424,38.8901020429,0</coordinates></Point>
      </Placemark>
	

      <Placemark>
	<styleUrl>#ys</styleUrl>
        <name>h8BjMg20Fk7s</name>
        <Point><coordinates>-77.010303268,38.8898939241,0</coordinates></Point>
      </Placemark>
	

      <Placemark>
	<styleUrl>#ys</styleUrl>
        <name>iLT5LyXUlPV9</name>
        <Point><coordinates>-77.0104080252,38.8895066526,0</coordinates></Point>
      </Placemark>
	

      <Placemark>
	<styleUrl>#ys</styleUrl>
        <name>jYwFYXnCB8gz</name>
        <Point><coordinates>-77.0082952516,38.8898009014,0</coordinates></Point>
      </Placemark>
	

      <Placemark>
	<styleUrl>#ys</styleUrl>
        <name>k7KE6Yc6SkoA</name>
        <Point><coordinates>-77.0103035855,38.8904096965,0</coordinates></Point>
      </Placemark>
	

      <Placemark>
	<styleUrl>#ys</styleUrl>
        <name>kLb23eMMSAyI</name>
        <Point><coordinates>-77.0107004884,38.8901962574,0</coordinates></Point>
      </Placemark>
	

      <Placemark>
	<styleUrl>#ys</styleUrl>
        <name>nQHStDim8Buj</name>
        <Point><coordinates>-77.010497102,38.8900948938,0</coordinates></Point>
      </Placemark>
	

      <Placemark>
	<styleUrl>#ys</styleUrl>
        <name>oq59QSJY1eYO</name>
        <Point><coordinates>-77.0103064363,38.8900033876,0</coordinates></Point>
      </Placemark>
	

      <Placemark>
	<styleUrl>#ys</styleUrl>
        <name>pF7XCEbbEFZa</name>
        <Point><coordinates>-77.0104979744,38.8900980973,0</coordinates></Point>
      </Placemark>
	

      <Placemark>
	<styleUrl>#ys</styleUrl>
        <name>pwLo9ArrdDdt</name>
        <Point><coordinates>-77.009891163,38.8905941942,0</coordinates></Point>
      </Placemark>
	

      <Placemark>
	<styleUrl>#ys</styleUrl>
        <name>reu60mHQDzBX</name>
        <Point><coordinates>-77.008309892,38.8913052831,0</coordinates></Point>
      </Placemark>
	

      <Placemark>
	<styleUrl>#ys</styleUrl>
        <name>rpHKA3qfYA5y</name>
        <Point><coordinates>-77.0076087285,38.8910087386,0</coordinates></Point>
      </Placemark>
	

      <Placemark>
	<styleUrl>#ys</styleUrl>
        <name>rx8AvgxkFeGd</name>
        <Point><coordinates>-77.0106080203,38.8898958196,0</coordinates></Point>
      </Placemark>
	

      <Placemark>
	<styleUrl>#ys</styleUrl>
        <name>sK1F7q5Fv7IL</name>
        <Point><coordinates>-77.010391921,38.8899049291,0</coordinates></Point>
      </Placemark>
	

      <Placemark>
	<styleUrl>#ys</styleUrl>
        <name>uXaWh7G2P36n</name>
        <Point><coordinates>-77.0101996858,38.8903097351,0</coordinates></Point>
      </Placemark>
	

      <Placemark>
	<styleUrl>#ys</styleUrl>
        <name>v7WuuCUCUgtD</name>
        <Point><coordinates>-77.0074078471,38.8896959604,0</coordinates></Point>
      </Placemark>
	

      <Placemark>
	<styleUrl>#ys</styleUrl>
        <name>x2GqSN2kAGY3</name>
        <Point><coordinates>-77.0100996448,38.8898005312,0</coordinates></Point>
      </Placemark>
	

      <Placemark>
	<styleUrl>#ys</styleUrl>
        <name>0VjRwooevgzN</name>
        <Point><coordinates>-77.010507183,38.8900977552,0</coordinates></Point>
      </Placemark>
	

      <Placemark>
	<styleUrl>#ys</styleUrl>
        <name>1do91KWUgjXQ</name>
        <Point><coordinates>-77.0079985532,38.8898952295,0</coordinates></Point>
      </Placemark>
	

      <Placemark>
	<styleUrl>#ys</styleUrl>
        <name>49158lDv9MVH</name>
        <Point><coordinates>-77.010209353,38.8897043928,0</coordinates></Point>
      </Placemark>
	

      <Placemark>
	<styleUrl>#ys</styleUrl>
        <name>5KP7PnNWK4Ue</name>
        <Point><coordinates>-77.0104069766,38.8895004492,0</coordinates></Point>
      </Placemark>
	

      <Placemark>
	<styleUrl>#ys</styleUrl>
        <name>6TYMFzQTLUTN</name>
        <Point><coordinates>-77.0103980783,38.8901949504,0</coordinates></Point>
      </Placemark>
	

      <Placemark>
	<styleUrl>#ys</styleUrl>
        <name>7iB22C7LbbNy</name>
        <Point><coordinates>-77.009894979,38.8900030011,0</coordinates></Point>
      </Placemark>
	

	      <Placemark>
		<name>7pyX4y0Z2wiy</name>
		<styleUrl>#rs</styleUrl>
		<Point><coordinates>-77.0075029386,38.8901978031,0</coordinates></Point>
		<description>https://www.youtube.com/embed/7O0E__AL9W4</description>
	      </Placemark>
		

      <Placemark>
	<styleUrl>#ys</styleUrl>
        <name>BFebZCtfR5aF</name>
        <Point><coordinates>-77.0101914289,38.8897948293,0</coordinates></Point>
      </Placemark>
	

	      <Placemark>
		<name>BG80gujuK5P6</name>
		<styleUrl>#rs</styleUrl>
		<Point><coordinates>-77.0107096908,38.8910078307,0</coordinates></Point>
		<description>https://www.youtube.com/embed/F1nkKocsAgc</description>
	      </Placemark>
		

	      <Placemark>
		<name>Bl351Ty32aMu</name>
		<styleUrl>#rs</styleUrl>
		<Point><coordinates>-77.0102975485,38.8902958083,0</coordinates></Point>
		<description>https://www.youtube.com/embed/qsJydCnaZn4</description>
	      </Placemark>
		

	      <Placemark>
		<name>BvNA5CiE47yt</name>
		<styleUrl>#rs</styleUrl>
		<Point><coordinates>-77.0097984392,38.8903059622,0</coordinates></Point>
		<description>https://www.youtube.com/embed/S1J5pQVNOTI</description>
	      </Placemark>
		

      <Placemark>
	<styleUrl>#ys</styleUrl>
        <name>CPeuy7lOW44J</name>
        <Point><coordinates>-77.0093950172,38.8904062829,0</coordinates></Point>
      </Placemark>
	

      <Placemark>
	<styleUrl>#ys</styleUrl>
        <name>CZgJF11YMHNh</name>
        <Point><coordinates>-77.0093987874,38.890701334,0</coordinates></Point>
      </Placemark>
	

      <Placemark>
	<styleUrl>#ys</styleUrl>
        <name>D74suPzrQwTL</name>
        <Point><coordinates>-77.0095060266,38.8907058088,0</coordinates></Point>
      </Placemark>
	

      <Placemark>
	<styleUrl>#ys</styleUrl>
        <name>FrQl6xqto2uu</name>
        <Point><coordinates>-77.0104934706,38.8896998035,0</coordinates></Point>
      </Placemark>
	

	      <Placemark>
		<name>JFDVk6DaG1KD</name>
		<styleUrl>#rs</styleUrl>
		<Point><coordinates>-77.0103043044,38.8901997266,0</coordinates></Point>
		<description>https://www.youtube.com/embed/r3Gs6GrdMj8</description>
	      </Placemark>
		

	      <Placemark>
		<name>JTr7X40BBrhP</name>
		<styleUrl>#rs</styleUrl>
		<Point><coordinates>-77.0104012311,38.8897037732,0</coordinates></Point>
		<description>https://www.youtube.com/embed/YmKCQKgG9NA</description>
	      </Placemark>
		

	      <Placemark>
		<name>KUWzwIjF44AC</name>
		<styleUrl>#rs</styleUrl>
		<Point><coordinates>-77.0108036347,38.8895076949,0</coordinates></Point>
		<description>https://www.youtube.com/embed/tpRfMwEcMOk</description>
	      </Placemark>
		

      <Placemark>
	<styleUrl>#ys</styleUrl>
        <name>KYoi7C8a45cX</name>
        <Point><coordinates>-77.0101981232,38.8895028042,0</coordinates></Point>
      </Placemark>
	

      <Placemark>
	<styleUrl>#ys</styleUrl>
        <name>KaWdtA4ulyQo</name>
        <Point><coordinates>-77.0103939934,38.890093664,0</coordinates></Point>
      </Placemark>
	

      <Placemark>
	<styleUrl>#ys</styleUrl>
        <name>M4qAK9MhEpEF</name>
        <Point><coordinates>-77.0098052842,38.8902916724,0</coordinates></Point>
      </Placemark>
	

      <Placemark>
	<styleUrl>#ys</styleUrl>
        <name>MF0TbEHFkmjB</name>
        <Point><coordinates>-77.0081955875,38.8912929483,0</coordinates></Point>
      </Placemark>
	

      <Placemark>
	<styleUrl>#ys</styleUrl>
        <name>OYFkHMYFMLfZ</name>
        <Point><coordinates>-77.0079969823,38.8897962817,0</coordinates></Point>
      </Placemark>
	

      <Placemark>
	<styleUrl>#ys</styleUrl>
        <name>Oc9WgHNGpAhE</name>
        <Point><coordinates>-77.0101047401,38.8900971489,0</coordinates></Point>
      </Placemark>
	

	      <Placemark>
		<name>QjlS1mXfbokU</name>
		<styleUrl>#rs</styleUrl>
		<Point><coordinates>-77.010301452,38.890091044,0</coordinates></Point>
		<description>https://www.youtube.com/embed/vc2Udgqzzt8</description>
	      </Placemark>
		

	      <Placemark>
		<name>REUyWy1tXI22</name>
		<styleUrl>#rs</styleUrl>
		<Point><coordinates>-77.0101976957,38.8916048414,0</coordinates></Point>
		<description>https://www.youtube.com/embed/mqnPktljNbo</description>
	      </Placemark>
		

      <Placemark>
	<styleUrl>#ys</styleUrl>
        <name>RqSWAT2AD63b</name>
        <Point><coordinates>-77.0104032441,38.8899037672,0</coordinates></Point>
      </Placemark>
	

      <Placemark>
	<styleUrl>#ys</styleUrl>
        <name>SHGsCPYkkOFj</name>
        <Point><coordinates>-77.0102037404,38.8896968018,0</coordinates></Point>
      </Placemark>
	

      <Placemark>
	<styleUrl>#ys</styleUrl>
        <name>Ty8H2A9NGGGD</name>
        <Point><coordinates>-77.0107098023,38.8901904825,0</coordinates></Point>
      </Placemark>
	

      <Placemark>
	<styleUrl>#ys</styleUrl>
        <name>UIqcvJE6vzT5</name>
        <Point><coordinates>-77.0103002371,38.8899030839,0</coordinates></Point>
      </Placemark>
	

      <Placemark>
	<styleUrl>#ys</styleUrl>
        <name>Uc6znqKs3w7S</name>
        <Point><coordinates>-77.010593636,38.8902075211,0</coordinates></Point>
      </Placemark>
	

      <Placemark>
	<styleUrl>#ys</styleUrl>
        <name>W56O8L5R8kju</name>
        <Point><coordinates>-77.0103011502,38.890405262,0</coordinates></Point>
      </Placemark>
	

      <Placemark>
	<styleUrl>#ys</styleUrl>
        <name>W9d9UvLeBYFu</name>
        <Point><coordinates>-77.0099969209,38.8900945231,0</coordinates></Point>
      </Placemark>
	

      <Placemark>
	<styleUrl>#ys</styleUrl>
        <name>ZUh5H7yo16yk</name>
        <Point><coordinates>-77.0092961608,38.8910915758,0</coordinates></Point>
      </Placemark>
	

      <Placemark>
	<styleUrl>#ys</styleUrl>
        <name>bMHWhr5qAMH9</name>
        <Point><coordinates>-77.0103978241,38.8900932364,0</coordinates></Point>
      </Placemark>
	

      <Placemark>
	<styleUrl>#ys</styleUrl>
        <name>cmzbWnPI5Jgs</name>
        <Point><coordinates>-77.010800321,38.8901010965,0</coordinates></Point>
      </Placemark>
	

      <Placemark>
	<styleUrl>#ys</styleUrl>
        <name>cnj6DJtVllfK</name>
        <Point><coordinates>-77.0106093427,38.8899001,0</coordinates></Point>
      </Placemark>
	

      <Placemark>
	<styleUrl>#ys</styleUrl>
        <name>dT3kSGZzzSzI</name>
        <Point><coordinates>-77.0106017673,38.8898982097,0</coordinates></Point>
      </Placemark>
	

      <Placemark>
	<styleUrl>#ys</styleUrl>
        <name>dsIj54OcP9IS</name>
        <Point><coordinates>-77.0104942557,38.8897011163,0</coordinates></Point>
      </Placemark>
	

      <Placemark>
	<styleUrl>#ys</styleUrl>
        <name>dwvgDZzQRsY3</name>
        <Point><coordinates>-77.0107973132,38.8895901625,0</coordinates></Point>
      </Placemark>
	

      <Placemark>
	<styleUrl>#ys</styleUrl>
        <name>eLSgf3w5r4PI</name>
        <Point><coordinates>-77.0104094643,38.8902023826,0</coordinates></Point>
      </Placemark>
	

      <Placemark>
	<styleUrl>#ys</styleUrl>
        <name>h2nH3xXOsrQ5</name>
        <Point><coordinates>-77.0103079172,38.8901978457,0</coordinates></Point>
      </Placemark>
	

      <Placemark>
	<styleUrl>#ys</styleUrl>
        <name>hmh5w1cou88U</name>
        <Point><coordinates>-77.0103080566,38.8900010546,0</coordinates></Point>
      </Placemark>
	

      <Placemark>
	<styleUrl>#ys</styleUrl>
        <name>i44n33HT20J8</name>
        <Point><coordinates>-77.0104946915,38.8896046142,0</coordinates></Point>
      </Placemark>
	

      <Placemark>
	<styleUrl>#ys</styleUrl>
        <name>ioCUUM1Est97</name>
        <Point><coordinates>-77.0077030482,38.8910928672,0</coordinates></Point>
      </Placemark>
	

      <Placemark>
	<styleUrl>#ys</styleUrl>
        <name>jkHvCmHQ8YzJ</name>
        <Point><coordinates>-77.0087961912,38.8911955496,0</coordinates></Point>
      </Placemark>
	

      <Placemark>
	<styleUrl>#ys</styleUrl>
        <name>nc76VY2gAWt8</name>
        <Point><coordinates>-77.0105066141,38.8895988679,0</coordinates></Point>
      </Placemark>
	

      <Placemark>
	<styleUrl>#ys</styleUrl>
        <name>oe78jzaih2Fp</name>
        <Point><coordinates>-77.0102984591,38.8895917518,0</coordinates></Point>
      </Placemark>
	

      <Placemark>
	<styleUrl>#ys</styleUrl>
        <name>rKv1m3cDVn8K</name>
        <Point><coordinates>-77.0101911462,38.8901053922,0</coordinates></Point>
      </Placemark>
	

      <Placemark>
	<styleUrl>#ys</styleUrl>
        <name>rNO0gDpL5nKj</name>
        <Point><coordinates>-77.009405631,38.8902983678,0</coordinates></Point>
      </Placemark>
	

      <Placemark>
	<styleUrl>#ys</styleUrl>
        <name>sICg1C38nHiG</name>
        <Point><coordinates>-77.0105910387,38.8902012612,0</coordinates></Point>
      </Placemark>
	

      <Placemark>
	<styleUrl>#ys</styleUrl>
        <name>sNSIvKezD8qU</name>
        <Point><coordinates>-77.0087085224,38.8901031069,0</coordinates></Point>
      </Placemark>
	

      <Placemark>
	<styleUrl>#ys</styleUrl>
        <name>tAc2BMgZlMhL</name>
        <Point><coordinates>-77.0101007684,38.8898935417,0</coordinates></Point>
      </Placemark>
	

      <Placemark>
	<styleUrl>#ys</styleUrl>
        <name>tN18oEGcdGtX</name>
        <Point><coordinates>-77.0102056315,38.8895976513,0</coordinates></Point>
      </Placemark>
	

      <Placemark>
	<styleUrl>#ys</styleUrl>
        <name>uWqE9aiqIa5b</name>
        <Point><coordinates>-77.0097943467,38.8903021283,0</coordinates></Point>
      </Placemark>
	

      <Placemark>
	<styleUrl>#ys</styleUrl>
        <name>ucphoWjc05a0</name>
        <Point><coordinates>-77.0082912799,38.8898084089,0</coordinates></Point>
      </Placemark>
	

      <Placemark>
	<styleUrl>#ys</styleUrl>
        <name>xpOu8rY8QfDS</name>
        <Point><coordinates>-77.010799895,38.8903991128,0</coordinates></Point>
      </Placemark>
	

      <Placemark>
	<styleUrl>#ys</styleUrl>
        <name>xracYRRZyQ66</name>
        <Point><coordinates>-77.007196653,38.8910004174,0</coordinates></Point>
      </Placemark>
	

      <Placemark>
	<styleUrl>#ys</styleUrl>
        <name>yNE8dnxhV87u</name>
        <Point><coordinates>-77.0106970964,38.8893979282,0</coordinates></Point>
      </Placemark>
	

      <Placemark>
	<styleUrl>#ys</styleUrl>
        <name>yQ67Hra75Hkd</name>
        <Point><coordinates>-77.0106993707,38.8906058202,0</coordinates></Point>
      </Placemark>
	

      <Placemark>
	<styleUrl>#ys</styleUrl>
        <name>zaCkdtc3RfzT</name>
        <Point><coordinates>-77.009400596,38.89070314,0</coordinates></Point>
      </Placemark>
	

      <Placemark>
	<styleUrl>#ys</styleUrl>
        <name>0lmypbT9naSL</name>
        <Point><coordinates>-77.0099907401,38.8898959671,0</coordinates></Point>
      </Placemark>
	

      <Placemark>
	<styleUrl>#ys</styleUrl>
        <name>2PBoIh9W74cM</name>
        <Point><coordinates>-77.0097039737,38.8899904275,0</coordinates></Point>
      </Placemark>
	

	      <Placemark>
		<name>3vGQyQIMf9H5</name>
		<styleUrl>#rs</styleUrl>
		<Point><coordinates>-77.0091980405,38.8898956062,0</coordinates></Point>
		<description>https://www.youtube.com/embed/snbsITpm9fM</description>
	      </Placemark>
		

      <Placemark>
	<styleUrl>#ys</styleUrl>
        <name>3xX9V5SrmugB</name>
        <Point><coordinates>-77.0103965968,38.8902027357,0</coordinates></Point>
      </Placemark>
	

      <Placemark>
	<styleUrl>#ys</styleUrl>
        <name>4GAV26EQ2cD6</name>
        <Point><coordinates>-77.0106036334,38.8901996696,0</coordinates></Point>
      </Placemark>
	

      <Placemark>
	<styleUrl>#ys</styleUrl>
        <name>5E16pZQTISLc</name>
        <Point><coordinates>-77.0105063168,38.889703329,0</coordinates></Point>
      </Placemark>
	

	      <Placemark>
		<name>5kf2savkefB7</name>
		<styleUrl>#rs</styleUrl>
		<Point><coordinates>-77.0084994928,38.889802875,0</coordinates></Point>
		<description>https://www.youtube.com/embed/Ib8aqDT0y2s</description>
	      </Placemark>
		

      <Placemark>
	<styleUrl>#ys</styleUrl>
        <name>69WACz6SPQg8</name>
        <Point><coordinates>-77.0101091956,38.8900912898,0</coordinates></Point>
      </Placemark>
	

      <Placemark>
	<styleUrl>#ys</styleUrl>
        <name>8154Nmd3bQq2</name>
        <Point><coordinates>-77.010203944,38.8894938988,0</coordinates></Point>
      </Placemark>
	

      <Placemark>
	<styleUrl>#ys</styleUrl>
        <name>EFv9XkrdDg8Q</name>
        <Point><coordinates>-77.0104036348,38.8900074954,0</coordinates></Point>
      </Placemark>
	

      <Placemark>
	<styleUrl>#ys</styleUrl>
        <name>FEwehCHGBE3e</name>
        <Point><coordinates>-77.0083981215,38.8886019182,0</coordinates></Point>
      </Placemark>
	

      <Placemark>
	<styleUrl>#ys</styleUrl>
        <name>FxXTgCmKCYXv</name>
        <Point><coordinates>-77.009995168,38.8901013978,0</coordinates></Point>
      </Placemark>
	

      <Placemark>
	<styleUrl>#ys</styleUrl>
        <name>G4rdUjsXjPju</name>
        <Point><coordinates>-77.0103087592,38.8897942321,0</coordinates></Point>
      </Placemark>
	

      <Placemark>
	<styleUrl>#ys</styleUrl>
        <name>HITFOk1YWLly</name>
        <Point><coordinates>-77.0098902793,38.8902092481,0</coordinates></Point>
      </Placemark>
	

      <Placemark>
	<styleUrl>#ys</styleUrl>
        <name>IgCQjNBok5f2</name>
        <Point><coordinates>-77.0087048037,38.8898954813,0</coordinates></Point>
      </Placemark>
	

	      <Placemark>
		<name>KDH68TyHUiw5</name>
		<styleUrl>#rs</styleUrl>
		<Point><coordinates>-77.0100001254,38.8900942867,0</coordinates></Point>
		<description>https://www.youtube.com/embed/p14W-1JNHBM</description>
	      </Placemark>
		

	      <Placemark>
		<name>KMyt1obG9scS</name>
		<styleUrl>#rs</styleUrl>
		<Point><coordinates>-77.0092945494,38.8911051629,0</coordinates></Point>
		<description>https://www.youtube.com/embed/2sIskvQqTMY</description>
	      </Placemark>
		

      <Placemark>
	<styleUrl>#ys</styleUrl>
        <name>M8YHLRH9D7gh</name>
        <Point><coordinates>-77.0097951671,38.8899944601,0</coordinates></Point>
      </Placemark>
	

	      <Placemark>
		<name>MIS1v7mdAmPU</name>
		<styleUrl>#rs</styleUrl>
		<Point><coordinates>-77.0104008449,38.8902072684,0</coordinates></Point>
		<description>https://www.youtube.com/embed/qBn1FeblPt4</description>
	      </Placemark>
		

      <Placemark>
	<styleUrl>#ys</styleUrl>
        <name>NCHvDSEn4XFl</name>
        <Point><coordinates>-77.0103020977,38.890393422,0</coordinates></Point>
      </Placemark>
	

	      <Placemark>
		<name>PxBfJc8LQNOq</name>
		<styleUrl>#rs</styleUrl>
		<Point><coordinates>-77.0104998286,38.8901978421,0</coordinates></Point>
		<description>https://www.youtube.com/embed/eF4RYb8wZGg</description>
	      </Placemark>
		

	      <Placemark>
		<name>Q7pXj92SdEwH</name>
		<styleUrl>#rs</styleUrl>
		<Point><coordinates>-77.0071952887,38.8910079741,0</coordinates></Point>
		<description>https://www.youtube.com/embed/XKNqb5hLJss</description>
	      </Placemark>
		

      <Placemark>
	<styleUrl>#ys</styleUrl>
        <name>QgPc65a71aHC</name>
        <Point><coordinates>-77.0102974795,38.890092763,0</coordinates></Point>
      </Placemark>
	

	      <Placemark>
		<name>Qo3hom0Qb1at</name>
		<styleUrl>#rs</styleUrl>
		<Point><coordinates>-77.0083015026,38.8906973483,0</coordinates></Point>
		<description>https://www.youtube.com/embed/A7LhS_7z8m8</description>
	      </Placemark>
		

      <Placemark>
	<styleUrl>#ys</styleUrl>
        <name>U4cg0Dfgtz12</name>
        <Point><coordinates>-77.0103006704,38.8901953604,0</coordinates></Point>
      </Placemark>
	

      <Placemark>
	<styleUrl>#ys</styleUrl>
        <name>VSBG3TilomZ3</name>
        <Point><coordinates>-77.0099035853,38.8898003166,0</coordinates></Point>
      </Placemark>
	

      <Placemark>
	<styleUrl>#ys</styleUrl>
        <name>XNohvDluHfmx</name>
        <Point><coordinates>-77.0088950481,38.89079319,0</coordinates></Point>
      </Placemark>
	

      <Placemark>
	<styleUrl>#ys</styleUrl>
        <name>ZhHAD9NO8kHg</name>
        <Point><coordinates>-77.0101003159,38.8897965104,0</coordinates></Point>
      </Placemark>
	

      <Placemark>
	<styleUrl>#ys</styleUrl>
        <name>ckvcLvKYv4cd</name>
        <Point><coordinates>-77.0099913218,38.8897910811,0</coordinates></Point>
      </Placemark>
	

      <Placemark>
	<styleUrl>#ys</styleUrl>
        <name>goL0HLdYn3Pb</name>
        <Point><coordinates>-77.009909184,38.8901022393,0</coordinates></Point>
      </Placemark>
	

      <Placemark>
	<styleUrl>#ys</styleUrl>
        <name>hDj4WDgMa7a5</name>
        <Point><coordinates>-77.0082047878,38.8913920488,0</coordinates></Point>
      </Placemark>
	

      <Placemark>
	<styleUrl>#ys</styleUrl>
        <name>he044xyPOURQ</name>
        <Point><coordinates>-77.0101955961,38.8900058447,0</coordinates></Point>
      </Placemark>
	

      <Placemark>
	<styleUrl>#ys</styleUrl>
        <name>i4km00GwGXJl</name>
        <Point><coordinates>-77.0105988987,38.8900056739,0</coordinates></Point>
      </Placemark>
	

      <Placemark>
	<styleUrl>#ys</styleUrl>
        <name>jCFVVrYH4bSd</name>
        <Point><coordinates>-77.0092905734,38.8911069627,0</coordinates></Point>
      </Placemark>
	

      <Placemark>
	<styleUrl>#ys</styleUrl>
        <name>kiBnNejo0JW0</name>
        <Point><coordinates>-77.0098979448,38.8899058487,0</coordinates></Point>
      </Placemark>
	

      <Placemark>
	<styleUrl>#ys</styleUrl>
        <name>kzrYSH4ddnof</name>
        <Point><coordinates>-77.0101990513,38.8897043919,0</coordinates></Point>
      </Placemark>
	

      <Placemark>
	<styleUrl>#ys</styleUrl>
        <name>lPoHoha3r4BZ</name>
        <Point><coordinates>-77.0080984038,38.889998542,0</coordinates></Point>
      </Placemark>
	

      <Placemark>
	<styleUrl>#ys</styleUrl>
        <name>m7EaLSED6igL</name>
        <Point><coordinates>-77.0077077153,38.8898068518,0</coordinates></Point>
      </Placemark>
	

      <Placemark>
	<styleUrl>#ys</styleUrl>
        <name>mxhCOOkUXgbA</name>
        <Point><coordinates>-77.0102949298,38.8899945828,0</coordinates></Point>
      </Placemark>
	

      <Placemark>
	<styleUrl>#ys</styleUrl>
        <name>neDUluCOUqv7</name>
        <Point><coordinates>-77.0078073795,38.889302337,0</coordinates></Point>
      </Placemark>
	

      <Placemark>
	<styleUrl>#ys</styleUrl>
        <name>oOILVE6gv0OH</name>
        <Point><coordinates>-77.0102970546,38.8897952542,0</coordinates></Point>
      </Placemark>
	

      <Placemark>
	<styleUrl>#ys</styleUrl>
        <name>pQf5uxtLtxH5</name>
        <Point><coordinates>-77.0097931992,38.889909288,0</coordinates></Point>
      </Placemark>
	

      <Placemark>
	<styleUrl>#ys</styleUrl>
        <name>qrYDoc4tDU8a</name>
        <Point><coordinates>-77.0105011963,38.8896944063,0</coordinates></Point>
      </Placemark>
	

      <Placemark>
	<styleUrl>#ys</styleUrl>
        <name>rQVUBMBLgLCR</name>
        <Point><coordinates>-77.0082098858,38.8908911095,0</coordinates></Point>
      </Placemark>
	

      <Placemark>
	<styleUrl>#ys</styleUrl>
        <name>rgDWmSDLhmhC</name>
        <Point><coordinates>-77.0097988983,38.8900948915,0</coordinates></Point>
      </Placemark>
	

      <Placemark>
	<styleUrl>#ys</styleUrl>
        <name>sqSMP875Jkmb</name>
        <Point><coordinates>-77.0103901775,38.8899076651,0</coordinates></Point>
      </Placemark>
	

      <Placemark>
	<styleUrl>#ys</styleUrl>
        <name>t7MJQilPbkFn</name>
        <Point><coordinates>-77.0105077511,38.8897929876,0</coordinates></Point>
      </Placemark>
	

      <Placemark>
	<styleUrl>#ys</styleUrl>
        <name>wCbOT5Lhqo7n</name>
        <Point><coordinates>-77.0103091493,38.8899924621,0</coordinates></Point>
      </Placemark>
	

      <Placemark>
	<styleUrl>#ys</styleUrl>
        <name>x9k3Cy14CSkF</name>
        <Point><coordinates>-77.0099962258,38.8896939076,0</coordinates></Point>
      </Placemark>
	

      <Placemark>
	<styleUrl>#ys</styleUrl>
        <name>xHkUeMHMFx3F</name>
        <Point><coordinates>-77.0102098297,38.8901025451,0</coordinates></Point>
      </Placemark>
	

      <Placemark>
	<styleUrl>#ys</styleUrl>
        <name>z5gCyYj1MB4N</name>
        <Point><coordinates>-77.0104010812,38.8899998506,0</coordinates></Point>
      </Placemark>
	

	      <Placemark>
		<name>1Zvr7Xtfv0Yt</name>
		<styleUrl>#rs</styleUrl>
		<Point><coordinates>-77.0103038277,38.8898047553,0</coordinates></Point>
		<description>https://www.youtube.com/embed/Ng6Nq1QlEkM</description>
	      </Placemark>
		

      <Placemark>
	<styleUrl>#ys</styleUrl>
        <name>386TsNXzw58a</name>
        <Point><coordinates>-77.0102986422,38.8898967503,0</coordinates></Point>
      </Placemark>
	

	      <Placemark>
		<name>4BN8CUCRxXuI</name>
		<styleUrl>#rs</styleUrl>
		<Point><coordinates>-77.0102901285,38.8902020418,0</coordinates></Point>
		<description>https://www.youtube.com/embed/847S6gLWGsk</description>
	      </Placemark>
		

      <Placemark>
	<styleUrl>#ys</styleUrl>
        <name>4tJb1pr11hRv</name>
        <Point><coordinates>-77.0101949234,38.889496538,0</coordinates></Point>
      </Placemark>
	

	      <Placemark>
		<name>650ut3VxB679</name>
		<styleUrl>#rs</styleUrl>
		<Point><coordinates>-77.0100928228,38.8899914489,0</coordinates></Point>
		<description>https://www.youtube.com/embed/ZMJhUc3xsC0</description>
	      </Placemark>
		

      <Placemark>
	<styleUrl>#ys</styleUrl>
        <name>70PxGZN8jdkz</name>
        <Point><coordinates>-77.0102031885,38.890105109,0</coordinates></Point>
      </Placemark>
	

      <Placemark>
	<styleUrl>#ys</styleUrl>
        <name>84qLg7BoXnnE</name>
        <Point><coordinates>-77.0070992136,38.8913935329,0</coordinates></Point>
      </Placemark>
	

      <Placemark>
	<styleUrl>#ys</styleUrl>
        <name>92T2a5WhOOdi</name>
        <Point><coordinates>-77.0103079728,38.8898960482,0</coordinates></Point>
      </Placemark>
	

      <Placemark>
	<styleUrl>#ys</styleUrl>
        <name>9HgjVjxIB1F0</name>
        <Point><coordinates>-77.0104929476,38.8898925231,0</coordinates></Point>
      </Placemark>
	

      <Placemark>
	<styleUrl>#ys</styleUrl>
        <name>9wOEguonR5WK</name>
        <Point><coordinates>-77.0102073416,38.8900926549,0</coordinates></Point>
      </Placemark>
	

	      <Placemark>
		<name>ATHRnnmNpayv</name>
		<styleUrl>#rs</styleUrl>
		<Point><coordinates>-77.0084067885,38.8906956027,0</coordinates></Point>
		<description>https://www.youtube.com/embed/vMBIsOq4CaI</description>
	      </Placemark>
		

      <Placemark>
	<styleUrl>#ys</styleUrl>
        <name>C4YoY0OUVVNO</name>
        <Point><coordinates>-77.0095956268,38.8891909932,0</coordinates></Point>
      </Placemark>
	

      <Placemark>
	<styleUrl>#ys</styleUrl>
        <name>C6CA3XcXO87g</name>
        <Point><coordinates>-77.0090099413,38.8899077116,0</coordinates></Point>
      </Placemark>
	

      <Placemark>
	<styleUrl>#ys</styleUrl>
        <name>CmTRG8bUhFov</name>
        <Point><coordinates>-77.0102974106,38.8901960149,0</coordinates></Point>
      </Placemark>
	

      <Placemark>
	<styleUrl>#ys</styleUrl>
        <name>D9VcpLzdRJhq</name>
        <Point><coordinates>-77.0099962805,38.8897921182,0</coordinates></Point>
      </Placemark>
	

      <Placemark>
	<styleUrl>#ys</styleUrl>
        <name>FBad9SgiC62l</name>
        <Point><coordinates>-77.0106019519,38.8901948287,0</coordinates></Point>
      </Placemark>
	

	      <Placemark>
		<name>G3QrHQ8hQT2j</name>
		<styleUrl>#rs</styleUrl>
		<Point><coordinates>-77.0103964788,38.8894913878,0</coordinates></Point>
		<description>https://www.youtube.com/embed/6Br25fBP5H0</description>
	      </Placemark>
		

      <Placemark>
	<styleUrl>#ys</styleUrl>
        <name>GfSUNqBBliUF</name>
        <Point><coordinates>-77.0083085961,38.8912927663,0</coordinates></Point>
      </Placemark>
	

      <Placemark>
	<styleUrl>#ys</styleUrl>
        <name>HCPEQvbjh9gA</name>
        <Point><coordinates>-77.0100008537,38.8898032566,0</coordinates></Point>
      </Placemark>
	

	      <Placemark>
		<name>Iw8f3g3OZ7Ib</name>
		<styleUrl>#rs</styleUrl>
		<Point><coordinates>-77.0097949581,38.8902930254,0</coordinates></Point>
		<description>https://www.youtube.com/embed/oFNhGn0EyU8</description>
	      </Placemark>
		

      <Placemark>
	<styleUrl>#ys</styleUrl>
        <name>KAipffF8QN4W</name>
        <Point><coordinates>-77.0103900568,38.8900093591,0</coordinates></Point>
      </Placemark>
	

	      <Placemark>
		<name>KOZwp3W3n68V</name>
		<styleUrl>#rs</styleUrl>
		<Point><coordinates>-77.0097027681,38.8899952056,0</coordinates></Point>
		<description>https://www.youtube.com/embed/W5l_0aJiO-c</description>
	      </Placemark>
		

      <Placemark>
	<styleUrl>#ys</styleUrl>
        <name>Ky8Hevr7bKg9</name>
        <Point><coordinates>-77.0102991848,38.8904034383,0</coordinates></Point>
      </Placemark>
	

      <Placemark>
	<styleUrl>#ys</styleUrl>
        <name>LQN0zyD01D3i</name>
        <Point><coordinates>-77.0090992656,38.8898936554,0</coordinates></Point>
      </Placemark>
	

	      <Placemark>
		<name>MVQm0eNzhPVp</name>
		<styleUrl>#rs</styleUrl>
		<Point><coordinates>-77.0102936317,38.8899958193,0</coordinates></Point>
		<description>https://www.youtube.com/embed/S0XriAEdBDk</description>
	      </Placemark>
		

      <Placemark>
	<styleUrl>#ys</styleUrl>
        <name>NxFqzCuhUuWu</name>
        <Point><coordinates>-77.0096923574,38.8901019319,0</coordinates></Point>
      </Placemark>
	

	      <Placemark>
		<name>OlQ3FLNrUgf5</name>
		<styleUrl>#rs</styleUrl>
		<Point><coordinates>-77.0102934894,38.8903084861,0</coordinates></Point>
		<description>https://www.youtube.com/embed/IB9iuM8LXso</description>
	      </Placemark>
		

      <Placemark>
	<styleUrl>#ys</styleUrl>
        <name>Ox9DFySZ4QpV</name>
        <Point><coordinates>-77.0102931348,38.8898003568,0</coordinates></Point>
      </Placemark>
	

      <Placemark>
	<styleUrl>#ys</styleUrl>
        <name>PKJUZ3EFcN73</name>
        <Point><coordinates>-77.0104051645,38.8895926385,0</coordinates></Point>
      </Placemark>
	

	      <Placemark>
		<name>Q7J24BNG2mCD</name>
		<styleUrl>#rs</styleUrl>
		<Point><coordinates>-77.0103070995,38.8898956543,0</coordinates></Point>
		<description>https://www.youtube.com/embed/Lkn-tITvikI</description>
	      </Placemark>
		

	      <Placemark>
		<name>QsKjvIGPfWKU</name>
		<styleUrl>#rs</styleUrl>
		<Point><coordinates>-77.0098060615,38.8896073692,0</coordinates></Point>
		<description>https://www.youtube.com/embed/AksX9-wqzuA</description>
	      </Placemark>
		

      <Placemark>
	<styleUrl>#ys</styleUrl>
        <name>RCK9wvoDmKQA</name>
        <Point><coordinates>-77.0104020205,38.8898910551,0</coordinates></Point>
      </Placemark>
	

      <Placemark>
	<styleUrl>#ys</styleUrl>
        <name>SytVtt4RWF4v</name>
        <Point><coordinates>-77.0100944333,38.8898980028,0</coordinates></Point>
      </Placemark>
	

      <Placemark>
	<styleUrl>#ys</styleUrl>
        <name>TD2RmUtYkTJn</name>
        <Point><coordinates>-77.0096942827,38.8899999367,0</coordinates></Point>
      </Placemark>
	

      <Placemark>
	<styleUrl>#ys</styleUrl>
        <name>Tn46zhOR0nF1</name>
        <Point><coordinates>-77.0096984805,38.8908996773,0</coordinates></Point>
      </Placemark>
	

      <Placemark>
	<styleUrl>#ys</styleUrl>
        <name>V032F8vspQ4W</name>
        <Point><coordinates>-77.0071049276,38.8893916755,0</coordinates></Point>
      </Placemark>
	

      <Placemark>
	<styleUrl>#ys</styleUrl>
        <name>V64JKsaNUkd7</name>
        <Point><coordinates>-77.0100011522,38.8898995981,0</coordinates></Point>
      </Placemark>
	

	      <Placemark>
		<name>W8ltLizECrMG</name>
		<styleUrl>#rs</styleUrl>
		<Point><coordinates>-77.0090985159,38.889797094,0</coordinates></Point>
		<description>https://www.dailymotion.com/embed/video/x7ynacd</description>
	      </Placemark>
		

      <Placemark>
	<styleUrl>#ys</styleUrl>
        <name>WOR0K16Wbi2I</name>
        <Point><coordinates>-77.0080989779,38.8898943429,0</coordinates></Point>
      </Placemark>
	

      <Placemark>
	<styleUrl>#ys</styleUrl>
        <name>WyzGKqd4L9y1</name>
        <Point><coordinates>-77.0082901147,38.8906960486,0</coordinates></Point>
      </Placemark>
	

      <Placemark>
	<styleUrl>#ys</styleUrl>
        <name>ZGCqQo5go8RC</name>
        <Point><coordinates>-77.0096902427,38.8903993126,0</coordinates></Point>
      </Placemark>
	

      <Placemark>
	<styleUrl>#ys</styleUrl>
        <name>c1vJVaLcIdbk</name>
        <Point><coordinates>-77.0101031181,38.8898004358,0</coordinates></Point>
      </Placemark>
	

      <Placemark>
	<styleUrl>#ys</styleUrl>
        <name>c7pkKiK235B9</name>
        <Point><coordinates>-77.0107995428,38.8896088173,0</coordinates></Point>
      </Placemark>
	

      <Placemark>
	<styleUrl>#ys</styleUrl>
        <name>cirqID5Kjxdp</name>
        <Point><coordinates>-77.0095009671,38.8904946588,0</coordinates></Point>
      </Placemark>
	

      <Placemark>
	<styleUrl>#ys</styleUrl>
        <name>dF2z7e7CkqqD</name>
        <Point><coordinates>-77.010105903,38.8894936412,0</coordinates></Point>
      </Placemark>
	

      <Placemark>
	<styleUrl>#ys</styleUrl>
        <name>h1XUhjJ5U6fD</name>
        <Point><coordinates>-77.0087044824,38.8897999494,0</coordinates></Point>
      </Placemark>
	

      <Placemark>
	<styleUrl>#ys</styleUrl>
        <name>jW0bQSDFVOEx</name>
        <Point><coordinates>-77.0088967715,38.8909973966,0</coordinates></Point>
      </Placemark>
	

      <Placemark>
	<styleUrl>#ys</styleUrl>
        <name>nYJeSZQnzWD0</name>
        <Point><coordinates>-77.0079015968,38.889798951,0</coordinates></Point>
      </Placemark>
	

      <Placemark>
	<styleUrl>#ys</styleUrl>
        <name>ntz8J5eFBH6g</name>
        <Point><coordinates>-77.0098983744,38.8900934912,0</coordinates></Point>
      </Placemark>
	

      <Placemark>
	<styleUrl>#ys</styleUrl>
        <name>o5ESRQACvFwS</name>
        <Point><coordinates>-77.0096931919,38.8900968598,0</coordinates></Point>
      </Placemark>
	

      <Placemark>
	<styleUrl>#ys</styleUrl>
        <name>pa0YYLSnHIN0</name>
        <Point><coordinates>-77.0102091956,38.8900916422,0</coordinates></Point>
      </Placemark>
	

      <Placemark>
	<styleUrl>#ys</styleUrl>
        <name>prkBlbR39wl6</name>
        <Point><coordinates>-77.0105040881,38.8903055362,0</coordinates></Point>
      </Placemark>
	

      <Placemark>
	<styleUrl>#ys</styleUrl>
        <name>uF2EKNOE0jpP</name>
        <Point><coordinates>-77.0099954312,38.8901040887,0</coordinates></Point>
      </Placemark>
	

      <Placemark>
	<styleUrl>#ys</styleUrl>
        <name>xQzHp0aizbvU</name>
        <Point><coordinates>-77.0104000925,38.8902089851,0</coordinates></Point>
      </Placemark>
	

      <Placemark>
	<styleUrl>#ys</styleUrl>
        <name>xf5PcQJRH676</name>
        <Point><coordinates>-77.0079999409,38.8899012861,0</coordinates></Point>
      </Placemark>
	

      <Placemark>
	<styleUrl>#ys</styleUrl>
        <name>1TszpHzh2B7A</name>
        <Point><coordinates>-77.0102943834,38.8900933029,0</coordinates></Point>
      </Placemark>
	

      <Placemark>
	<styleUrl>#ys</styleUrl>
        <name>2XUH3sL1gOJ6</name>
        <Point><coordinates>-77.0079053691,38.8900073923,0</coordinates></Point>
      </Placemark>
	

      <Placemark>
	<styleUrl>#ys</styleUrl>
        <name>4ENe4AvLzDXg</name>
        <Point><coordinates>-77.0103073366,38.8900925643,0</coordinates></Point>
      </Placemark>
	

      <Placemark>
	<styleUrl>#ys</styleUrl>
        <name>4sOiN4xK6zIM</name>
        <Point><coordinates>-77.0104042196,38.8899970318,0</coordinates></Point>
      </Placemark>
	

	      <Placemark>
		<name>4wIDySD7tKxo</name>
		<styleUrl>#rs</styleUrl>
		<Point><coordinates>-77.008892202,38.8899099773,0</coordinates></Point>
		<description>https://www.youtube.com/embed/ARMYQnEsL2g</description>
	      </Placemark>
		

      <Placemark>
	<styleUrl>#ys</styleUrl>
        <name>5WD4sk51MUzc</name>
        <Point><coordinates>-77.0105078879,38.8897086726,0</coordinates></Point>
      </Placemark>
	

      <Placemark>
	<styleUrl>#ys</styleUrl>
        <name>6p2yjz4nBLcd</name>
        <Point><coordinates>-77.0102076925,38.8902981636,0</coordinates></Point>
      </Placemark>
	

	      <Placemark>
		<name>7WJTCduTUKpl</name>
		<styleUrl>#rs</styleUrl>
		<Point><coordinates>-77.0104095823,38.889503222,0</coordinates></Point>
		<description>https://www.youtube.com/embed/81PBdFjC4Qw</description>
	      </Placemark>
		

	      <Placemark>
		<name>99Z6yIaTknNG</name>
		<styleUrl>#rs</styleUrl>
		<Point><coordinates>-77.0103006616,38.8896009026,0</coordinates></Point>
		<description>https://www.youtube.com/embed/eHEv8KYhZYo</description>
	      </Placemark>
		

	      <Placemark>
		<name>9bJLFfPeZlk8</name>
		<styleUrl>#rs</styleUrl>
		<Point><coordinates>-77.010399909,38.8896971654,0</coordinates></Point>
		<description>https://www.youtube.com/embed/lhsEplQ-syk</description>
	      </Placemark>
		

      <Placemark>
	<styleUrl>#ys</styleUrl>
        <name>9mroY9bM530c</name>
        <Point><coordinates>-77.0081975192,38.8891900728,0</coordinates></Point>
      </Placemark>
	

	      <Placemark>
		<name>BnoDFbldwdly</name>
		<styleUrl>#rs</styleUrl>
		<Point><coordinates>-77.010300882,38.8898941474,0</coordinates></Point>
		<description>https://www.youtube.com/embed/aGmTkZCI-sU</description>
	      </Placemark>
		

      <Placemark>
	<styleUrl>#ys</styleUrl>
        <name>CdZE4mF5ht43</name>
        <Point><coordinates>-77.009803472,38.8896058608,0</coordinates></Point>
      </Placemark>
	

      <Placemark>
	<styleUrl>#ys</styleUrl>
        <name>DOo0flQHUlS8</name>
        <Point><coordinates>-77.0103914354,38.8899050095,0</coordinates></Point>
      </Placemark>
	

	      <Placemark>
		<name>FGl5ZhqR5Jpp</name>
		<styleUrl>#rs</styleUrl>
		<Point><coordinates>-77.0102985885,38.8898980404,0</coordinates></Point>
		<description>https://www.youtube.com/embed/7ENr75rTNjQ</description>
	      </Placemark>
		

	      <Placemark>
		<name>FRPR3VqfBzIF</name>
		<styleUrl>#rs</styleUrl>
		<Point><coordinates>-77.0097990987,38.8901903499,0</coordinates></Point>
		<description>https://www.youtube.com/embed/BKve9BsxLwc</description>
	      </Placemark>
		

      <Placemark>
	<styleUrl>#ys</styleUrl>
        <name>GXN2iRqMxDy0</name>
        <Point><coordinates>-77.0100979453,38.8907981268,0</coordinates></Point>
      </Placemark>
	

      <Placemark>
	<styleUrl>#ys</styleUrl>
        <name>HpjpXqeN7btf</name>
        <Point><coordinates>-77.0104947587,38.8900965601,0</coordinates></Point>
      </Placemark>
	

      <Placemark>
	<styleUrl>#ys</styleUrl>
        <name>I1lnSn9C5ZI6</name>
        <Point><coordinates>-77.007101922,38.8894083183,0</coordinates></Point>
      </Placemark>
	

      <Placemark>
	<styleUrl>#ys</styleUrl>
        <name>IPhKCiCgj6h0</name>
        <Point><coordinates>-77.0074983548,38.8900983597,0</coordinates></Point>
      </Placemark>
	

      <Placemark>
	<styleUrl>#ys</styleUrl>
        <name>IXySAT5Xk5o8</name>
        <Point><coordinates>-77.0104953177,38.8896066214,0</coordinates></Point>
      </Placemark>
	

      <Placemark>
	<styleUrl>#ys</styleUrl>
        <name>JhXxhl6veRlW</name>
        <Point><coordinates>-77.0105000245,38.8895902725,0</coordinates></Point>
      </Placemark>
	

	      <Placemark>
		<name>LuLFx5NpoK10</name>
		<styleUrl>#rs</styleUrl>
		<Point><coordinates>-77.009393471,38.8903915857,0</coordinates></Point>
		<description>https://www.youtube.com/embed/sHKgeCqs_io</description>
	      </Placemark>
		

      <Placemark>
	<styleUrl>#ys</styleUrl>
        <name>MAUXuBm0ERQ6</name>
        <Point><coordinates>-77.0103929736,38.8899046249,0</coordinates></Point>
      </Placemark>
	

	      <Placemark>
		<name>OgrPDRox3rYY</name>
		<styleUrl>#rs</styleUrl>
		<Point><coordinates>-77.0102930783,38.8911076836,0</coordinates></Point>
		<description>https://www.youtube.com/embed/f4O-eMAurJw</description>
	      </Placemark>
		

      <Placemark>
	<styleUrl>#ys</styleUrl>
        <name>Q4noy1tDPvuw</name>
        <Point><coordinates>-77.0078970526,38.8892964478,0</coordinates></Point>
      </Placemark>
	

	      <Placemark>
		<name>QNPHAGgOFQAp</name>
		<styleUrl>#rs</styleUrl>
		<Point><coordinates>-77.0107959525,38.8904038318,0</coordinates></Point>
		<description>https://www.youtube.com/embed/aIiL9OPTA84</description>
	      </Placemark>
		

      <Placemark>
	<styleUrl>#ys</styleUrl>
        <name>SsiQNqkss9Cv</name>
        <Point><coordinates>-77.0081926829,38.8908932676,0</coordinates></Point>
      </Placemark>
	

      <Placemark>
	<styleUrl>#ys</styleUrl>
        <name>TmIiF8Y5fMPQ</name>
        <Point><coordinates>-77.0107955428,38.8903061173,0</coordinates></Point>
      </Placemark>
	

      <Placemark>
	<styleUrl>#ys</styleUrl>
        <name>TpGdYnhxD5kw</name>
        <Point><coordinates>-77.0082001572,38.8909090007,0</coordinates></Point>
      </Placemark>
	

      <Placemark>
	<styleUrl>#ys</styleUrl>
        <name>ViIpu8eZLGaK</name>
        <Point><coordinates>-77.0101978847,38.8900920013,0</coordinates></Point>
      </Placemark>
	

      <Placemark>
	<styleUrl>#ys</styleUrl>
        <name>WD1im1v0jLMX</name>
        <Point><coordinates>-77.0103908675,38.8900962249,0</coordinates></Point>
      </Placemark>
	

      <Placemark>
	<styleUrl>#ys</styleUrl>
        <name>WG1JCxpY4b1e</name>
        <Point><coordinates>-77.010497002,38.8899076246,0</coordinates></Point>
      </Placemark>
	

      <Placemark>
	<styleUrl>#ys</styleUrl>
        <name>XCMfOk219rxY</name>
        <Point><coordinates>-77.0101935969,38.8898011251,0</coordinates></Point>
      </Placemark>
	

      <Placemark>
	<styleUrl>#ys</styleUrl>
        <name>YyiW5o4xagEw</name>
        <Point><coordinates>-77.010605975,38.8896966603,0</coordinates></Point>
      </Placemark>
	

      <Placemark>
	<styleUrl>#ys</styleUrl>
        <name>ahY8n2R8hyxb</name>
        <Point><coordinates>-77.0104901069,38.8897098631,0</coordinates></Point>
      </Placemark>
	

      <Placemark>
	<styleUrl>#ys</styleUrl>
        <name>apk625yMXapx</name>
        <Point><coordinates>-77.0103024441,38.8899970438,0</coordinates></Point>
      </Placemark>
	

      <Placemark>
	<styleUrl>#ys</styleUrl>
        <name>cH7hJfL5O4UU</name>
        <Point><coordinates>-77.0104950231,38.8899002132,0</coordinates></Point>
      </Placemark>
	

      <Placemark>
	<styleUrl>#ys</styleUrl>
        <name>cONvl0p08sMY</name>
        <Point><coordinates>-77.0103907559,38.890193596,0</coordinates></Point>
      </Placemark>
	

      <Placemark>
	<styleUrl>#ys</styleUrl>
        <name>cZP6tyoSFNCq</name>
        <Point><coordinates>-77.0103032989,38.8904086179,0</coordinates></Point>
      </Placemark>
	

      <Placemark>
	<styleUrl>#ys</styleUrl>
        <name>csRsMMepEl92</name>
        <Point><coordinates>-77.0100053327,38.8900959739,0</coordinates></Point>
      </Placemark>
	

      <Placemark>
	<styleUrl>#ys</styleUrl>
        <name>dH7rHe3d36Wo</name>
        <Point><coordinates>-77.0100023828,38.8897962097,0</coordinates></Point>
      </Placemark>
	

      <Placemark>
	<styleUrl>#ys</styleUrl>
        <name>e3gCJthSQe2u</name>
        <Point><coordinates>-77.0078928013,38.8886023293,0</coordinates></Point>
      </Placemark>
	

      <Placemark>
	<styleUrl>#ys</styleUrl>
        <name>f0iTgxeWp2XF</name>
        <Point><coordinates>-77.0104057711,38.8901044884,0</coordinates></Point>
      </Placemark>
	

      <Placemark>
	<styleUrl>#ys</styleUrl>
        <name>fyEPZnIr509X</name>
        <Point><coordinates>-77.01020224,38.8900918079,0</coordinates></Point>
      </Placemark>
	

      <Placemark>
	<styleUrl>#ys</styleUrl>
        <name>gBqTAHIlozbl</name>
        <Point><coordinates>-77.0095007437,38.8902925659,0</coordinates></Point>
      </Placemark>
	

      <Placemark>
	<styleUrl>#ys</styleUrl>
        <name>hUhwsaOzwD5t</name>
        <Point><coordinates>-77.010701268,38.890304651,0</coordinates></Point>
      </Placemark>
	

      <Placemark>
	<styleUrl>#ys</styleUrl>
        <name>iIoPCwhtrBlk</name>
        <Point><coordinates>-77.0107911022,38.8894991584,0</coordinates></Point>
      </Placemark>
	

      <Placemark>
	<styleUrl>#ys</styleUrl>
        <name>iLnkEpoJQrGI</name>
        <Point><coordinates>-77.0106008132,38.8902011487,0</coordinates></Point>
      </Placemark>
	

      <Placemark>
	<styleUrl>#ys</styleUrl>
        <name>lTQpQNshDHhK</name>
        <Point><coordinates>-77.0101091363,38.8901073029,0</coordinates></Point>
      </Placemark>
	

      <Placemark>
	<styleUrl>#ys</styleUrl>
        <name>lefVDZuXCGQ6</name>
        <Point><coordinates>-77.0096901857,38.8885922837,0</coordinates></Point>
      </Placemark>
	

      <Placemark>
	<styleUrl>#ys</styleUrl>
        <name>mAeQjkqeA7Up</name>
        <Point><coordinates>-77.0100084705,38.8899998812,0</coordinates></Point>
      </Placemark>
	

      <Placemark>
	<styleUrl>#ys</styleUrl>
        <name>nmB6WgFjPbwx</name>
        <Point><coordinates>-77.0086919606,38.890100299,0</coordinates></Point>
      </Placemark>
	

      <Placemark>
	<styleUrl>#ys</styleUrl>
        <name>pqQE5kr2gBxw</name>
        <Point><coordinates>-77.0081972362,38.8912906522,0</coordinates></Point>
      </Placemark>
	

      <Placemark>
	<styleUrl>#ys</styleUrl>
        <name>q7BpcYyFpX7J</name>
        <Point><coordinates>-77.0103980925,38.8904098019,0</coordinates></Point>
      </Placemark>
	

      <Placemark>
	<styleUrl>#ys</styleUrl>
        <name>rxfGSkOAfeSK</name>
        <Point><coordinates>-77.0068909513,38.8905947913,0</coordinates></Point>
      </Placemark>
	

      <Placemark>
	<styleUrl>#ys</styleUrl>
        <name>seF40Ol6bgmX</name>
        <Point><coordinates>-77.009801754,38.8880050985,0</coordinates></Point>
      </Placemark>
	

      <Placemark>
	<styleUrl>#ys</styleUrl>
        <name>tXIzFNM5yp9f</name>
        <Point><coordinates>-77.0079924694,38.889801787,0</coordinates></Point>
      </Placemark>
	

      <Placemark>
	<styleUrl>#ys</styleUrl>
        <name>vmiDLX97YgI9</name>
        <Point><coordinates>-77.0084014049,38.8897953064,0</coordinates></Point>
      </Placemark>
	

      <Placemark>
	<styleUrl>#ys</styleUrl>
        <name>vpuHVwUv1HHH</name>
        <Point><coordinates>-77.01039138,38.8898953606,0</coordinates></Point>
      </Placemark>
	

      <Placemark>
	<styleUrl>#ys</styleUrl>
        <name>yCEeH9uyYj0g</name>
        <Point><coordinates>-77.008698521,38.8901086384,0</coordinates></Point>
      </Placemark>
	

      <Placemark>
	<styleUrl>#ys</styleUrl>
        <name>0261f0TEn46K</name>
        <Point><coordinates>-77.0097953171,38.890197044,0</coordinates></Point>
      </Placemark>
	

      <Placemark>
	<styleUrl>#ys</styleUrl>
        <name>059AWtA9q7PG</name>
        <Point><coordinates>-77.0103085599,38.8899991604,0</coordinates></Point>
      </Placemark>
	

	      <Placemark>
		<name>0jaHRfXYTxdk</name>
		<styleUrl>#rs</styleUrl>
		<Point><coordinates>-77.0106078086,38.8899016094,0</coordinates></Point>
		<description>https://www.youtube.com/embed/mfzxn2ufAEk</description>
	      </Placemark>
		

      <Placemark>
	<styleUrl>#ys</styleUrl>
        <name>1B7KFzHPr5ST</name>
        <Point><coordinates>-77.0076028595,38.8902011497,0</coordinates></Point>
      </Placemark>
	

	      <Placemark>
		<name>4AquVMy2oe6C</name>
		<styleUrl>#rs</styleUrl>
		<Point><coordinates>-77.0103096069,38.8900931593,0</coordinates></Point>
		<description>https://www.youtube.com/embed/ni-vNMZpVd4</description>
	      </Placemark>
		

      <Placemark>
	<styleUrl>#ys</styleUrl>
        <name>5F4X9i7bivo4</name>
        <Point><coordinates>-77.0104943147,38.8899970609,0</coordinates></Point>
      </Placemark>
	

      <Placemark>
	<styleUrl>#ys</styleUrl>
        <name>7zAhxOgZLwXG</name>
        <Point><coordinates>-77.0106028606,38.8902963993,0</coordinates></Point>
      </Placemark>
	

      <Placemark>
	<styleUrl>#ys</styleUrl>
        <name>8WBQGw7ppLmM</name>
        <Point><coordinates>-77.007405218,38.8900924362,0</coordinates></Point>
      </Placemark>
	

      <Placemark>
	<styleUrl>#ys</styleUrl>
        <name>8rCpNjS3g3Ok</name>
        <Point><coordinates>-77.008302875,38.8897042609,0</coordinates></Point>
      </Placemark>
	

      <Placemark>
	<styleUrl>#ys</styleUrl>
        <name>9T1Wgyjt0vKj</name>
        <Point><coordinates>-77.0085981056,38.8897962039,0</coordinates></Point>
      </Placemark>
	

	      <Placemark>
		<name>Cg3gG8trkats</name>
		<styleUrl>#rs</styleUrl>
		<Point><coordinates>-77.0074950211,38.8899975203,0</coordinates></Point>
		<description>https://www.youtube.com/embed/mDW0AmAzGNs</description>
	      </Placemark>
		

	      <Placemark>
		<name>DWGQ3kX1t1bF</name>
		<styleUrl>#rs</styleUrl>
		<Point><coordinates>-77.009905437,38.89000901,0</coordinates></Point>
		<description>https://www.youtube.com/embed/4W4tB61yqJo</description>
	      </Placemark>
		

      <Placemark>
	<styleUrl>#ys</styleUrl>
        <name>Dsw78s0t9tya</name>
        <Point><coordinates>-77.0103972043,38.889990722,0</coordinates></Point>
      </Placemark>
	

      <Placemark>
	<styleUrl>#ys</styleUrl>
        <name>EvuXaSzgYJ14</name>
        <Point><coordinates>-77.0107009714,38.8901974461,0</coordinates></Point>
      </Placemark>
	

	      <Placemark>
		<name>G81yHTuMUvlX</name>
		<styleUrl>#rs</styleUrl>
		<Point><coordinates>-77.0104093106,38.8897073336,0</coordinates></Point>
		<description>https://www.youtube.com/embed/-q8kpZ9O6BI</description>
	      </Placemark>
		

      <Placemark>
	<styleUrl>#ys</styleUrl>
        <name>GRURef1jtwIy</name>
        <Point><coordinates>-77.0082990567,38.8896924762,0</coordinates></Point>
      </Placemark>
	

      <Placemark>
	<styleUrl>#ys</styleUrl>
        <name>GsVZm7o33oLw</name>
        <Point><coordinates>-77.0103063164,38.890307271,0</coordinates></Point>
      </Placemark>
	

	      <Placemark>
		<name>H06oXU0HGpUM</name>
		<styleUrl>#rs</styleUrl>
		<Point><coordinates>-77.0092992412,38.8910961638,0</coordinates></Point>
		<description>https://www.youtube.com/embed/8urKRKrtteM</description>
	      </Placemark>
		

	      <Placemark>
		<name>HpQ07PUDmWDk</name>
		<styleUrl>#rs</styleUrl>
		<Point><coordinates>-77.0104000571,38.8900000942,0</coordinates></Point>
		<description>https://www.youtube.com/embed/s1zA8X2M7qk</description>
	      </Placemark>
		

	      <Placemark>
		<name>JmnaAbNVz3nl</name>
		<styleUrl>#rs</styleUrl>
		<Point><coordinates>-77.0096087523,38.8908940586,0</coordinates></Point>
		<description>https://www.youtube.com/embed/DFCqEbqu8V8</description>
	      </Placemark>
		

	      <Placemark>
		<name>KQ0TpQnsiuCS</name>
		<styleUrl>#rs</styleUrl>
		<Point><coordinates>-77.0086092893,38.8882933047,0</coordinates></Point>
		<description>https://www.youtube.com/embed/MKPWCVkazCs</description>
	      </Placemark>
		

      <Placemark>
	<styleUrl>#ys</styleUrl>
        <name>Km2S7d92uPH8</name>
        <Point><coordinates>-77.0108019953,38.8902013512,0</coordinates></Point>
      </Placemark>
	

      <Placemark>
	<styleUrl>#ys</styleUrl>
        <name>OBZizPT08K46</name>
        <Point><coordinates>-77.0103966528,38.8896936801,0</coordinates></Point>
      </Placemark>
	

      <Placemark>
	<styleUrl>#ys</styleUrl>
        <name>P965teMlfY6l</name>
        <Point><coordinates>-77.0101984306,38.8895992995,0</coordinates></Point>
      </Placemark>
	

      <Placemark>
	<styleUrl>#ys</styleUrl>
        <name>PE6kDnMTh8Z6</name>
        <Point><coordinates>-77.0091097956,38.8908078569,0</coordinates></Point>
      </Placemark>
	

      <Placemark>
	<styleUrl>#ys</styleUrl>
        <name>Qau1A0qmEkCT</name>
        <Point><coordinates>-77.010098592,38.8897955013,0</coordinates></Point>
      </Placemark>
	

      <Placemark>
	<styleUrl>#ys</styleUrl>
        <name>S3xTtPUyKMam</name>
        <Point><coordinates>-77.009397804,38.8904981328,0</coordinates></Point>
      </Placemark>
	

      <Placemark>
	<styleUrl>#ys</styleUrl>
        <name>T1QC0HCgDOa9</name>
        <Point><coordinates>-77.008007111,38.8912989311,0</coordinates></Point>
      </Placemark>
	

      <Placemark>
	<styleUrl>#ys</styleUrl>
        <name>T4Umz6d0SMnc</name>
        <Point><coordinates>-77.0084996703,38.8896071909,0</coordinates></Point>
      </Placemark>
	

      <Placemark>
	<styleUrl>#ys</styleUrl>
        <name>WaNexB6Lznsq</name>
        <Point><coordinates>-77.0107985204,38.8894937518,0</coordinates></Point>
      </Placemark>
	

      <Placemark>
	<styleUrl>#ys</styleUrl>
        <name>YJjhdVowJOyA</name>
        <Point><coordinates>-77.0105919058,38.8894053591,0</coordinates></Point>
      </Placemark>
	

      <Placemark>
	<styleUrl>#ys</styleUrl>
        <name>YOZZhOBy8vLv</name>
        <Point><coordinates>-77.0102038297,38.889506816,0</coordinates></Point>
      </Placemark>
	

      <Placemark>
	<styleUrl>#ys</styleUrl>
        <name>c0nIoRasIm5z</name>
        <Point><coordinates>-77.0082943034,38.8897992426,0</coordinates></Point>
      </Placemark>
	

      <Placemark>
	<styleUrl>#ys</styleUrl>
        <name>c9JUtuCVndZf</name>
        <Point><coordinates>-77.009707089,38.8900027696,0</coordinates></Point>
      </Placemark>
	

      <Placemark>
	<styleUrl>#ys</styleUrl>
        <name>cP14vEjjZT4J</name>
        <Point><coordinates>-77.010392897,38.8901970364,0</coordinates></Point>
      </Placemark>
	

      <Placemark>
	<styleUrl>#ys</styleUrl>
        <name>dTs1N3WVh3h8</name>
        <Point><coordinates>-77.0099068309,38.8899906675,0</coordinates></Point>
      </Placemark>
	

      <Placemark>
	<styleUrl>#ys</styleUrl>
        <name>fXCW0v9cFfE4</name>
        <Point><coordinates>-77.0080948419,38.8898036476,0</coordinates></Point>
      </Placemark>
	

      <Placemark>
	<styleUrl>#ys</styleUrl>
        <name>hL2yyR9YsFmy</name>
        <Point><coordinates>-77.0105022373,38.8898946396,0</coordinates></Point>
      </Placemark>
	

      <Placemark>
	<styleUrl>#ys</styleUrl>
        <name>ih45GbhXmiXD</name>
        <Point><coordinates>-77.0104955838,38.8897949009,0</coordinates></Point>
      </Placemark>
	

      <Placemark>
	<styleUrl>#ys</styleUrl>
        <name>kAv6wX8KsD1i</name>
        <Point><coordinates>-77.0103033387,38.8901911544,0</coordinates></Point>
      </Placemark>
	

      <Placemark>
	<styleUrl>#ys</styleUrl>
        <name>kL7oxKMD3okz</name>
        <Point><coordinates>-77.0103916671,38.8905995793,0</coordinates></Point>
      </Placemark>
	

      <Placemark>
	<styleUrl>#ys</styleUrl>
        <name>kR4Y0kFSrb9C</name>
        <Point><coordinates>-77.0105094361,38.8902062948,0</coordinates></Point>
      </Placemark>
	

      <Placemark>
	<styleUrl>#ys</styleUrl>
        <name>kneFRcEfGSQC</name>
        <Point><coordinates>-77.0095942747,38.8900993233,0</coordinates></Point>
      </Placemark>
	

      <Placemark>
	<styleUrl>#ys</styleUrl>
        <name>lM9IhrO85Tyy</name>
        <Point><coordinates>-77.0105081736,38.8899970628,0</coordinates></Point>
      </Placemark>
	

      <Placemark>
	<styleUrl>#ys</styleUrl>
        <name>lyDrgBAPM8U5</name>
        <Point><coordinates>-77.0103042042,38.88990952,0</coordinates></Point>
      </Placemark>
	

      <Placemark>
	<styleUrl>#ys</styleUrl>
        <name>mAXJK2q00tGs</name>
        <Point><coordinates>-77.0105050413,38.8898015278,0</coordinates></Point>
      </Placemark>
	

      <Placemark>
	<styleUrl>#ys</styleUrl>
        <name>nA2Mp778j1ng</name>
        <Point><coordinates>-77.0105953527,38.8898938655,0</coordinates></Point>
      </Placemark>
	

      <Placemark>
	<styleUrl>#ys</styleUrl>
        <name>sMxOkJCipo0O</name>
        <Point><coordinates>-77.0102967953,38.8910096926,0</coordinates></Point>
      </Placemark>
	

      <Placemark>
	<styleUrl>#ys</styleUrl>
        <name>sjQ6YrVTYuw6</name>
        <Point><coordinates>-77.0108083956,38.8894002363,0</coordinates></Point>
      </Placemark>
	

      <Placemark>
	<styleUrl>#ys</styleUrl>
        <name>t4l1G51olUAh</name>
        <Point><coordinates>-77.0103022299,38.8894978431,0</coordinates></Point>
      </Placemark>
	

      <Placemark>
	<styleUrl>#ys</styleUrl>
        <name>uLrMp3ouT1vK</name>
        <Point><coordinates>-77.0105095372,38.8901098441,0</coordinates></Point>
      </Placemark>
	

      <Placemark>
	<styleUrl>#ys</styleUrl>
        <name>v86cAAcKaAx7</name>
        <Point><coordinates>-77.0107073502,38.8892959403,0</coordinates></Point>
      </Placemark>
	

      <Placemark>
	<styleUrl>#ys</styleUrl>
        <name>vwn5xmDvxfqV</name>
        <Point><coordinates>-77.0102010464,38.8897081502,0</coordinates></Point>
      </Placemark>
	

      <Placemark>
	<styleUrl>#ys</styleUrl>
        <name>wA0ahVX5oGl8</name>
        <Point><coordinates>-77.010502086,38.8897904208,0</coordinates></Point>
      </Placemark>
	

      <Placemark>
	<styleUrl>#ys</styleUrl>
        <name>wd3geYW1nvRL</name>
        <Point><coordinates>-77.0086915584,38.8901088527,0</coordinates></Point>
      </Placemark>
	

      <Placemark>
	<styleUrl>#ys</styleUrl>
        <name>wfRxIgZLZRUF</name>
        <Point><coordinates>-77.0079991037,38.8897905321,0</coordinates></Point>
      </Placemark>
	

      <Placemark>
	<styleUrl>#ys</styleUrl>
        <name>ymitmJGIEUH5</name>
        <Point><coordinates>-77.0103921232,38.8901924971,0</coordinates></Point>
      </Placemark>
	

      <Placemark>
	<styleUrl>#ys</styleUrl>
        <name>14bBcpxpQBmB</name>
        <Point><coordinates>-77.010602831,38.8899034138,0</coordinates></Point>
      </Placemark>
	

      <Placemark>
	<styleUrl>#ys</styleUrl>
        <name>1SiUfBSz1BbU</name>
        <Point><coordinates>-77.007497833,38.8913046105,0</coordinates></Point>
      </Placemark>
	

      <Placemark>
	<styleUrl>#ys</styleUrl>
        <name>2J39t1TfSZLB</name>
        <Point><coordinates>-77.0106915826,38.889991482,0</coordinates></Point>
      </Placemark>
	

      <Placemark>
	<styleUrl>#ys</styleUrl>
        <name>2gQjxzkGI6EX</name>
        <Point><coordinates>-77.0072020662,38.8898825174,0</coordinates></Point>
      </Placemark>
	

	      <Placemark>
		<name>3ZXOHhUdKlYd</name>
		<styleUrl>#rs</styleUrl>
		<Point><coordinates>-77.0100086034,38.8899039437,0</coordinates></Point>
		<description>https://www.youtube.com/embed/fKfEkALRSlA</description>
	      </Placemark>
		

      <Placemark>
	<styleUrl>#ys</styleUrl>
        <name>4VNsp0xOXD9Z</name>
        <Point><coordinates>-77.0074901888,38.8887908604,0</coordinates></Point>
      </Placemark>
	

      <Placemark>
	<styleUrl>#ys</styleUrl>
        <name>65TvMK7dx9fy</name>
        <Point><coordinates>-77.0104965092,38.8897988853,0</coordinates></Point>
      </Placemark>
	

	      <Placemark>
		<name>7ImZGTdfdcUk</name>
		<styleUrl>#rs</styleUrl>
		<Point><coordinates>-77.009994402,38.8898015937,0</coordinates></Point>
		<description>https://www.youtube.com/embed/4EZDh_taH44</description>
	      </Placemark>
		

      <Placemark>
	<styleUrl>#ys</styleUrl>
        <name>7eLmGW77Y5o1</name>
        <Point><coordinates>-77.0107076476,38.8900962809,0</coordinates></Point>
      </Placemark>
	

	      <Placemark>
		<name>8ziKp2FKa3Sb</name>
		<styleUrl>#rs</styleUrl>
		<Point><coordinates>-77.0102934247,38.8896920013,0</coordinates></Point>
		<description>https://www.youtube.com/embed/YyekijGCiHY</description>
	      </Placemark>
		

      <Placemark>
	<styleUrl>#ys</styleUrl>
        <name>9M4Lnsf790sK</name>
        <Point><coordinates>-77.0095040157,38.8903993401,0</coordinates></Point>
      </Placemark>
	

      <Placemark>
	<styleUrl>#ys</styleUrl>
        <name>9iAT30LM1MKX</name>
        <Point><coordinates>-77.0105061633,38.8896996301,0</coordinates></Point>
      </Placemark>
	

	      <Placemark>
		<name>CKSVgexBTTpn</name>
		<styleUrl>#rs</styleUrl>
		<Point><coordinates>-77.0108045338,38.8898067674,0</coordinates></Point>
		<description>https://www.youtube.com/embed/BnkWf9woXgo</description>
	      </Placemark>
		

      <Placemark>
	<styleUrl>#ys</styleUrl>
        <name>GNugjVRmu3Bt</name>
        <Point><coordinates>-77.0079953597,38.8897924103,0</coordinates></Point>
      </Placemark>
	

      <Placemark>
	<styleUrl>#ys</styleUrl>
        <name>Gojopp7rDlG9</name>
        <Point><coordinates>-77.0097083739,38.8900026979,0</coordinates></Point>
      </Placemark>
	

      <Placemark>
	<styleUrl>#ys</styleUrl>
        <name>H3xEi7VU7UMH</name>
        <Point><coordinates>-77.0090052119,38.8910977689,0</coordinates></Point>
      </Placemark>
	

      <Placemark>
	<styleUrl>#ys</styleUrl>
        <name>HP1SIkO4eErL</name>
        <Point><coordinates>-77.0100072529,38.8900080672,0</coordinates></Point>
      </Placemark>
	

      <Placemark>
	<styleUrl>#ys</styleUrl>
        <name>J9hbVTooDYoT</name>
        <Point><coordinates>-77.0077097189,38.8897983593,0</coordinates></Point>
      </Placemark>
	

      <Placemark>
	<styleUrl>#ys</styleUrl>
        <name>LAIAfAzBL39U</name>
        <Point><coordinates>-77.0083981475,38.8899080547,0</coordinates></Point>
      </Placemark>
	

	      <Placemark>
		<name>LzjH34PY3gv5</name>
		<styleUrl>#rs</styleUrl>
		<Point><coordinates>-77.0103008346,38.8895044706,0</coordinates></Point>
		<description>https://www.youtube.com/embed/yegFWdiUsX8</description>
	      </Placemark>
		

      <Placemark>
	<styleUrl>#ys</styleUrl>
        <name>MwV2lwWVgAF3</name>
        <Point><coordinates>-77.009894857,38.8897910917,0</coordinates></Point>
      </Placemark>
	

      <Placemark>
	<styleUrl>#ys</styleUrl>
        <name>NU3mL7uF5ryx</name>
        <Point><coordinates>-77.0098029528,38.8909984188,0</coordinates></Point>
      </Placemark>
	

	      <Placemark>
		<name>NUpAt87SN70T</name>
		<styleUrl>#rs</styleUrl>
		<Point><coordinates>-77.0105016297,38.8899963313,0</coordinates></Point>
		<description>https://www.youtube.com/embed/rMOyowuM40k</description>
	      </Placemark>
		

      <Placemark>
	<styleUrl>#ys</styleUrl>
        <name>ODwhqOERzT0b</name>
        <Point><coordinates>-77.0098905374,38.8899941344,0</coordinates></Point>
      </Placemark>
	

      <Placemark>
	<styleUrl>#ys</styleUrl>
        <name>PtX0m5xmBWoZ</name>
        <Point><coordinates>-77.0104907059,38.8897991081,0</coordinates></Point>
      </Placemark>
	

      <Placemark>
	<styleUrl>#ys</styleUrl>
        <name>Rc6DVzsHCQh8</name>
        <Point><coordinates>-77.0073968386,38.8897999084,0</coordinates></Point>
      </Placemark>
	

      <Placemark>
	<styleUrl>#ys</styleUrl>
        <name>ScT8XU9t70YC</name>
        <Point><coordinates>-77.0103079597,38.8900008876,0</coordinates></Point>
      </Placemark>
	

      <Placemark>
	<styleUrl>#ys</styleUrl>
        <name>T57zH8SK96yv</name>
        <Point><coordinates>-77.010101876,38.8898053999,0</coordinates></Point>
      </Placemark>
	

      <Placemark>
	<styleUrl>#ys</styleUrl>
        <name>TCEV0FC63Cns</name>
        <Point><coordinates>-77.0102976024,38.8902016112,0</coordinates></Point>
      </Placemark>
	

      <Placemark>
	<styleUrl>#ys</styleUrl>
        <name>VVtO7erqIcAG</name>
        <Point><coordinates>-77.0105022735,38.8895011341,0</coordinates></Point>
      </Placemark>
	

      <Placemark>
	<styleUrl>#ys</styleUrl>
        <name>X1mc2UButF8U</name>
        <Point><coordinates>-77.0100010886,38.8897907329,0</coordinates></Point>
      </Placemark>
	

      <Placemark>
	<styleUrl>#ys</styleUrl>
        <name>X9301RyNxl2u</name>
        <Point><coordinates>-77.0103015538,38.8903995238,0</coordinates></Point>
      </Placemark>
	

      <Placemark>
	<styleUrl>#ys</styleUrl>
        <name>XVwLXkaqrq94</name>
        <Point><coordinates>-77.0103911504,38.8899087773,0</coordinates></Point>
      </Placemark>
	

      <Placemark>
	<styleUrl>#ys</styleUrl>
        <name>XZeZIBxC6R64</name>
        <Point><coordinates>-77.0086012506,38.8897991522,0</coordinates></Point>
      </Placemark>
	

      <Placemark>
	<styleUrl>#ys</styleUrl>
        <name>YmMpgeN8t8t1</name>
        <Point><coordinates>-77.0076030117,38.8914901803,0</coordinates></Point>
      </Placemark>
	

      <Placemark>
	<styleUrl>#ys</styleUrl>
        <name>aRWTR7sk7i90</name>
        <Point><coordinates>-77.0103099669,38.8901974787,0</coordinates></Point>
      </Placemark>
	

      <Placemark>
	<styleUrl>#ys</styleUrl>
        <name>b4zuuhfp6WDv</name>
        <Point><coordinates>-77.0101018916,38.8897980772,0</coordinates></Point>
      </Placemark>
	

      <Placemark>
	<styleUrl>#ys</styleUrl>
        <name>eMDjjMzm6kPk</name>
        <Point><coordinates>-77.010003131,38.8898055626,0</coordinates></Point>
      </Placemark>
	

      <Placemark>
	<styleUrl>#ys</styleUrl>
        <name>g2PtWX9a3FMp</name>
        <Point><coordinates>-77.0104951099,38.8900985602,0</coordinates></Point>
      </Placemark>
	

      <Placemark>
	<styleUrl>#ys</styleUrl>
        <name>h14pdTaJ1a90</name>
        <Point><coordinates>-77.0104054831,38.890099589,0</coordinates></Point>
      </Placemark>
	

      <Placemark>
	<styleUrl>#ys</styleUrl>
        <name>iNUzEnL2twRC</name>
        <Point><coordinates>-77.0102989462,38.8899027479,0</coordinates></Point>
      </Placemark>
	

      <Placemark>
	<styleUrl>#ys</styleUrl>
        <name>iRWQjcZoNssg</name>
        <Point><coordinates>-77.0084049203,38.8907055909,0</coordinates></Point>
      </Placemark>
	

      <Placemark>
	<styleUrl>#ys</styleUrl>
        <name>j4xU3ggaxAmU</name>
        <Point><coordinates>-77.01050957,38.8900935352,0</coordinates></Point>
      </Placemark>
	

      <Placemark>
	<styleUrl>#ys</styleUrl>
        <name>jBCihjRZf0Q3</name>
        <Point><coordinates>-77.0101931017,38.8896036453,0</coordinates></Point>
      </Placemark>
	

      <Placemark>
	<styleUrl>#ys</styleUrl>
        <name>jdlnafwV1RqD</name>
        <Point><coordinates>-77.0099023759,38.8900032851,0</coordinates></Point>
      </Placemark>
	

      <Placemark>
	<styleUrl>#ys</styleUrl>
        <name>kCmbHkMOiPUj</name>
        <Point><coordinates>-77.0107020943,38.8902891781,0</coordinates></Point>
      </Placemark>
	

      <Placemark>
	<styleUrl>#ys</styleUrl>
        <name>ksMt1rnBR6TT</name>
        <Point><coordinates>-77.0102905298,38.889807301,0</coordinates></Point>
      </Placemark>
	

      <Placemark>
	<styleUrl>#ys</styleUrl>
        <name>l6zcfjWByRw1</name>
        <Point><coordinates>-77.0097062895,38.8899978451,0</coordinates></Point>
      </Placemark>
	

      <Placemark>
	<styleUrl>#ys</styleUrl>
        <name>lla5uObGdq5U</name>
        <Point><coordinates>-77.0104094679,38.8902944465,0</coordinates></Point>
      </Placemark>
	

      <Placemark>
	<styleUrl>#ys</styleUrl>
        <name>mNHDBC1SRe5i</name>
        <Point><coordinates>-77.007802419,38.8898055663,0</coordinates></Point>
      </Placemark>
	

      <Placemark>
	<styleUrl>#ys</styleUrl>
        <name>nkL4Fpk5C8U1</name>
        <Point><coordinates>-77.0106934662,38.8902913183,0</coordinates></Point>
      </Placemark>
	

      <Placemark>
	<styleUrl>#ys</styleUrl>
        <name>rddR5CxtyA92</name>
        <Point><coordinates>-77.0103013949,38.8899000491,0</coordinates></Point>
      </Placemark>
	

      <Placemark>
	<styleUrl>#ys</styleUrl>
        <name>riReyNCVV3dd</name>
        <Point><coordinates>-77.0099011872,38.8900027929,0</coordinates></Point>
      </Placemark>
	

      <Placemark>
	<styleUrl>#ys</styleUrl>
        <name>rvvchSNi1zP1</name>
        <Point><coordinates>-77.0103023213,38.8902004522,0</coordinates></Point>
      </Placemark>
	

      <Placemark>
	<styleUrl>#ys</styleUrl>
        <name>sGrzbuVjrLZ1</name>
        <Point><coordinates>-77.0083002622,38.8899089043,0</coordinates></Point>
      </Placemark>
	

      <Placemark>
	<styleUrl>#ys</styleUrl>
        <name>srqxy751uhoy</name>
        <Point><coordinates>-77.0101016381,38.8894990631,0</coordinates></Point>
      </Placemark>
	

      <Placemark>
	<styleUrl>#ys</styleUrl>
        <name>weArmA6HzH6s</name>
        <Point><coordinates>-77.0100958472,38.8901962751,0</coordinates></Point>
      </Placemark>
	

      <Placemark>
	<styleUrl>#ys</styleUrl>
        <name>wvTbtnGOAknX</name>
        <Point><coordinates>-77.0089991438,38.8908921475,0</coordinates></Point>
      </Placemark>
	

      <Placemark>
	<styleUrl>#ys</styleUrl>
        <name>xgbJtf76wElz</name>
        <Point><coordinates>-77.0087986304,38.8903988149,0</coordinates></Point>
      </Placemark>
	

      <Placemark>
	<styleUrl>#ys</styleUrl>
        <name>ycxk7J43m1BR</name>
        <Point><coordinates>-77.0102921733,38.8901009045,0</coordinates></Point>
      </Placemark>
	

      <Placemark>
	<styleUrl>#ys</styleUrl>
        <name>zq7UIxedJaq1</name>
        <Point><coordinates>-77.0108013831,38.8899064378,0</coordinates></Point>
      </Placemark>
	

      <Placemark>
	<styleUrl>#ys</styleUrl>
        <name>0MuvObe1mK4G</name>
        <Point><coordinates>-77.0105034293,38.8901065569,0</coordinates></Point>
      </Placemark>
	

      <Placemark>
	<styleUrl>#ys</styleUrl>
        <name>1Imn9XMEtSnj</name>
        <Point><coordinates>-77.0103088887,38.8897907517,0</coordinates></Point>
      </Placemark>
	

	      <Placemark>
		<name>27ZbRGWbHX86</name>
		<styleUrl>#rs</styleUrl>
		<Point><coordinates>-77.0073946537,38.8897992934,0</coordinates></Point>
		<description>https://www.youtube.com/embed/Clkmb4AiJmE</description>
	      </Placemark>
		

      <Placemark>
	<styleUrl>#ys</styleUrl>
        <name>2MGQVZjSLNJv</name>
        <Point><coordinates>-77.0097994302,38.8912903216,0</coordinates></Point>
      </Placemark>
	

	      <Placemark>
		<name>2XwJn0Iqphrc</name>
		<styleUrl>#rs</styleUrl>
		<Point><coordinates>-77.0093037762,38.8909965674,0</coordinates></Point>
		<description>https://www.youtube.com/embed/MWm36_n5JB4</description>
	      </Placemark>
		

      <Placemark>
	<styleUrl>#ys</styleUrl>
        <name>35iIAVuIAijR</name>
        <Point><coordinates>-77.0103900533,38.8898967853,0</coordinates></Point>
      </Placemark>
	

	      <Placemark>
		<name>3PkLpHaNWWeH</name>
		<styleUrl>#rs</styleUrl>
		<Point><coordinates>-77.010390632,38.8899086414,0</coordinates></Point>
		<description>https://www.youtube.com/embed/FfU36S_nEwI</description>
	      </Placemark>
		

      <Placemark>
	<styleUrl>#ys</styleUrl>
        <name>6ZJ1lpw5mEMQ</name>
        <Point><coordinates>-77.0094988396,38.8910029779,0</coordinates></Point>
      </Placemark>
	

	      <Placemark>
		<name>8fsC1EfPO70k</name>
		<styleUrl>#rs</styleUrl>
		<Point><coordinates>-77.0082098591,38.88979485,0</coordinates></Point>
		<description>https://www.youtube.com/embed/jCJb07N7MBc</description>
	      </Placemark>
		

	      <Placemark>
		<name>980wtH06yGul</name>
		<styleUrl>#rs</styleUrl>
		<Point><coordinates>-77.0105908137,38.890202976,0</coordinates></Point>
		<description>https://www.youtube.com/embed/bQsAGbJM40A</description>
	      </Placemark>
		

      <Placemark>
	<styleUrl>#ys</styleUrl>
        <name>A1z3oGHrEMaJ</name>
        <Point><coordinates>-77.0085079045,38.8897943277,0</coordinates></Point>
      </Placemark>
	

	      <Placemark>
		<name>B7yh3YgnbcFT</name>
		<styleUrl>#rs</styleUrl>
		<Point><coordinates>-77.0105999336,38.890009205,0</coordinates></Point>
		<description>https://www.youtube.com/embed/b6JFPBvIRTU</description>
	      </Placemark>
		

      <Placemark>
	<styleUrl>#ys</styleUrl>
        <name>CN67oIug5zAh</name>
        <Point><coordinates>-77.0084926241,38.8898038217,0</coordinates></Point>
      </Placemark>
	

      <Placemark>
	<styleUrl>#ys</styleUrl>
        <name>CVJciWvfzVc1</name>
        <Point><coordinates>-77.0099996532,38.8900053369,0</coordinates></Point>
      </Placemark>
	

	      <Placemark>
		<name>CgZxY8PDNM9m</name>
		<styleUrl>#rs</styleUrl>
		<Point><coordinates>-77.0103099022,38.8898958453,0</coordinates></Point>
		<description>https://www.youtube.com/embed/6o3ks4I167k</description>
	      </Placemark>
		

      <Placemark>
	<styleUrl>#ys</styleUrl>
        <name>D7gBZ66rFsaJ</name>
        <Point><coordinates>-77.0094943151,38.8903048073,0</coordinates></Point>
      </Placemark>
	

      <Placemark>
	<styleUrl>#ys</styleUrl>
        <name>DGpUSlu6o2yD</name>
        <Point><coordinates>-77.0099969147,38.8900959788,0</coordinates></Point>
      </Placemark>
	

	      <Placemark>
		<name>EjkHpFX9ATgp</name>
		<styleUrl>#rs</styleUrl>
		<Point><coordinates>-77.009501133,38.8891916401,0</coordinates></Point>
		<description>https://www.youtube.com/embed/kpc1XvQpdkY</description>
	      </Placemark>
		

      <Placemark>
	<styleUrl>#ys</styleUrl>
        <name>H2oGTBXUaYus</name>
        <Point><coordinates>-77.0097085978,38.8900001153,0</coordinates></Point>
      </Placemark>
	

      <Placemark>
	<styleUrl>#ys</styleUrl>
        <name>IA3EZSOAq1Mo</name>
        <Point><coordinates>-77.0101986849,38.8904088325,0</coordinates></Point>
      </Placemark>
	

	      <Placemark>
		<name>IjCvip4YonXA</name>
		<styleUrl>#rs</styleUrl>
		<Point><coordinates>-77.0105918413,38.8899030051,0</coordinates></Point>
		<description>https://www.youtube.com/embed/FmrIKCDNFLk</description>
	      </Placemark>
		

      <Placemark>
	<styleUrl>#ys</styleUrl>
        <name>Kv5stfJPDE5u</name>
        <Point><coordinates>-77.0103019051,38.8903974628,0</coordinates></Point>
      </Placemark>
	

	      <Placemark>
		<name>Lap0L50xI3S5</name>
		<styleUrl>#rs</styleUrl>
		<Point><coordinates>-77.0104064721,38.8903981926,0</coordinates></Point>
		<description>https://www.youtube.com/embed/V2hXOfvilSc</description>
	      </Placemark>
		

      <Placemark>
	<styleUrl>#ys</styleUrl>
        <name>OIuhPB7lv5Y0</name>
        <Point><coordinates>-77.0086955386,38.8901067506,0</coordinates></Point>
      </Placemark>
	

      <Placemark>
	<styleUrl>#ys</styleUrl>
        <name>OUJYa3npW0oE</name>
        <Point><coordinates>-77.0083967776,38.8884093504,0</coordinates></Point>
      </Placemark>
	

	      <Placemark>
		<name>PQdPojnDKG5e</name>
		<styleUrl>#rs</styleUrl>
		<Point><coordinates>-77.0094091429,38.8902979686,0</coordinates></Point>
		<description>https://www.youtube.com/embed/d0M_wMeNFEw</description>
	      </Placemark>
		

      <Placemark>
	<styleUrl>#ys</styleUrl>
        <name>PQxU7YHg4q2t</name>
        <Point><coordinates>-77.0102979074,38.8899987724,0</coordinates></Point>
      </Placemark>
	

	      <Placemark>
		<name>PwoSeJkaPd5b</name>
		<styleUrl>#rs</styleUrl>
		<Point><coordinates>-77.0102042903,38.8901066379,0</coordinates></Point>
		<description>https://www.youtube.com/embed/0fY00cSSSko</description>
	      </Placemark>
		

	      <Placemark>
		<name>QuamW4hp4JQw</name>
		<styleUrl>#rs</styleUrl>
		<Point><coordinates>-77.0100974357,38.8899924347,0</coordinates></Point>
		<description>https://www.youtube.com/embed/XHWw3-qeGBc</description>
	      </Placemark>
		

      <Placemark>
	<styleUrl>#ys</styleUrl>
        <name>Rp3qrB15ypiE</name>
        <Point><coordinates>-77.010093672,38.8899030115,0</coordinates></Point>
      </Placemark>
	

      <Placemark>
	<styleUrl>#ys</styleUrl>
        <name>SjnwtUGu3Gnr</name>
        <Point><coordinates>-77.0103041942,38.8899049309,0</coordinates></Point>
      </Placemark>
	

      <Placemark>
	<styleUrl>#ys</styleUrl>
        <name>U10ndi3PaWJm</name>
        <Point><coordinates>-77.0102992825,38.8898087833,0</coordinates></Point>
      </Placemark>
	

      <Placemark>
	<styleUrl>#ys</styleUrl>
        <name>UC7nTJ2ha9WM</name>
        <Point><coordinates>-77.0101903748,38.8897948081,0</coordinates></Point>
      </Placemark>
	

      <Placemark>
	<styleUrl>#ys</styleUrl>
        <name>UiC5TplHHHMG</name>
        <Point><coordinates>-77.0108055089,38.8904021787,0</coordinates></Point>
      </Placemark>
	

      <Placemark>
	<styleUrl>#ys</styleUrl>
        <name>X3bX08cgxZ14</name>
        <Point><coordinates>-77.0105947263,38.8900076159,0</coordinates></Point>
      </Placemark>
	

      <Placemark>
	<styleUrl>#ys</styleUrl>
        <name>ZLCE4QPPz3kW</name>
        <Point><coordinates>-77.0103048399,38.8898920792,0</coordinates></Point>
      </Placemark>
	

      <Placemark>
	<styleUrl>#ys</styleUrl>
        <name>auWQW8YMv3Dn</name>
        <Point><coordinates>-77.0101095426,38.8896937141,0</coordinates></Point>
      </Placemark>
	

      <Placemark>
	<styleUrl>#ys</styleUrl>
        <name>cH0PB1OhfbT8</name>
        <Point><coordinates>-77.0103096527,38.8898069955,0</coordinates></Point>
      </Placemark>
	

      <Placemark>
	<styleUrl>#ys</styleUrl>
        <name>dCYGQP2fKOZf</name>
        <Point><coordinates>-77.0103071081,38.8898053936,0</coordinates></Point>
      </Placemark>
	

      <Placemark>
	<styleUrl>#ys</styleUrl>
        <name>dNQEWzlDBIPp</name>
        <Point><coordinates>-77.0105042264,38.8902059831,0</coordinates></Point>
      </Placemark>
	

      <Placemark>
	<styleUrl>#ys</styleUrl>
        <name>ehioYC9DKqYv</name>
        <Point><coordinates>-77.0101919888,38.8895995194,0</coordinates></Point>
      </Placemark>
	

      <Placemark>
	<styleUrl>#ys</styleUrl>
        <name>f6rOHIXG9rrO</name>
        <Point><coordinates>-77.0075061182,38.8902077655,0</coordinates></Point>
      </Placemark>
	

      <Placemark>
	<styleUrl>#ys</styleUrl>
        <name>g09yZZCplavI</name>
        <Point><coordinates>-77.0091057222,38.8899042859,0</coordinates></Point>
      </Placemark>
	

      <Placemark>
	<styleUrl>#ys</styleUrl>
        <name>gGFU7fWrafzY</name>
        <Point><coordinates>-77.0089940424,38.8904971309,0</coordinates></Point>
      </Placemark>
	

      <Placemark>
	<styleUrl>#ys</styleUrl>
        <name>gMBFKGBhPEWE</name>
        <Point><coordinates>-77.0105926283,38.8899960856,0</coordinates></Point>
      </Placemark>
	

      <Placemark>
	<styleUrl>#ys</styleUrl>
        <name>iGMPJYFvf344</name>
        <Point><coordinates>-77.010502008,38.8901036993,0</coordinates></Point>
      </Placemark>
	

      <Placemark>
	<styleUrl>#ys</styleUrl>
        <name>iYSwurwmWhcQ</name>
        <Point><coordinates>-77.010394299,38.8897024123,0</coordinates></Point>
      </Placemark>
	

      <Placemark>
	<styleUrl>#ys</styleUrl>
        <name>k5DNY63jXHR9</name>
        <Point><coordinates>-77.0087004383,38.8898999993,0</coordinates></Point>
      </Placemark>
	

      <Placemark>
	<styleUrl>#ys</styleUrl>
        <name>mMG01UJganoD</name>
        <Point><coordinates>-77.0106044838,38.8899911913,0</coordinates></Point>
      </Placemark>
	

      <Placemark>
	<styleUrl>#ys</styleUrl>
        <name>nHwELP7CxOl0</name>
        <Point><coordinates>-77.0100006951,38.8900027004,0</coordinates></Point>
      </Placemark>
	

      <Placemark>
	<styleUrl>#ys</styleUrl>
        <name>nUo6Jkrm2lXO</name>
        <Point><coordinates>-77.0101037285,38.8896918599,0</coordinates></Point>
      </Placemark>
	

      <Placemark>
	<styleUrl>#ys</styleUrl>
        <name>nWXZaWKtzRzw</name>
        <Point><coordinates>-77.0107920877,38.8894979954,0</coordinates></Point>
      </Placemark>
	

      <Placemark>
	<styleUrl>#ys</styleUrl>
        <name>oVUX6YjtEszI</name>
        <Point><coordinates>-77.0096953884,38.8900065692,0</coordinates></Point>
      </Placemark>
	

      <Placemark>
	<styleUrl>#ys</styleUrl>
        <name>pLfYimJ25ZbI</name>
        <Point><coordinates>-77.0084902116,38.8898937614,0</coordinates></Point>
      </Placemark>
	

      <Placemark>
	<styleUrl>#ys</styleUrl>
        <name>pt4FtwnKbCIy</name>
        <Point><coordinates>-77.0101941006,38.8902064734,0</coordinates></Point>
      </Placemark>