<?xml version="1.0" encoding="UTF-8"?>
<kml xmlns="http://www.opengis.net/kml/2.2">
  <Document>
    <name>Parler</name>
    <open>1</open>





    <Style id="ys">
      <IconStyle>
<scale>0.2</scale>
        <Icon>
          <href>http://maps.google.com/mapfiles/kml/paddle/wht-blank-lv.png
          </href>
		
        </Icon>
      </IconStyle>
    </Style>


    <Style id="rs">
      <IconStyle>
        <Icon>
          <href>https://maps.google.com/mapfiles/kml/pushpin/red-pushpin.png
          </href>
        </Icon>
      </IconStyle>
      <BalloonStyle>
        <text>$[video]</text>
      </BalloonStyle>
    </Style>





      <Placemark>
	<styleUrl>#ys</styleUrl>
        <name>0ILtbKNKST48</name>
        <Point><coordinates>-77.0101099554,38.8897902903,0</coordinates></Point>
      </Placemark>
	

      <Placemark>
	<styleUrl>#ys</styleUrl>
        <name>0QH0juP06hoN</name>
        <Point><coordinates>-77.0184032006,38.8922944474,0</coordinates></Point>
      </Placemark>
	

      <Placemark>
	<styleUrl>#ys</styleUrl>
        <name>0RkqluQmLWCt</name>
        <Point><coordinates>-77.0082910064,38.890709224,0</coordinates></Point>
      </Placemark>
	

      <Placemark>
	<styleUrl>#ys</styleUrl>
        <name>1JUL6i1sevr5</name>
        <Point><coordinates>-77.0056075848,38.8906928266,0</coordinates></Point>
      </Placemark>
	

      <Placemark>
	<styleUrl>#ys</styleUrl>
        <name>25q0ZEYP63AS</name>
        <Point><coordinates>-77.0155984807,38.8918900186,0</coordinates></Point>
      </Placemark>
	

      <Placemark>
	<styleUrl>#ys</styleUrl>
        <name>47bEpiPC9H4r</name>
        <Point><coordinates>-77.0153059421,38.8910023684,0</coordinates></Point>
      </Placemark>
	

      <Placemark>
	<styleUrl>#ys</styleUrl>
        <name>4CgvVPwmomjo</name>
        <Point><coordinates>-77.0102991193,38.8898912531,0</coordinates></Point>
      </Placemark>
	

      <Placemark>
	<styleUrl>#ys</styleUrl>
        <name>50XYMR09ys3v</name>
        <Point><coordinates>-77.009905737,38.8901058455,0</coordinates></Point>
      </Placemark>
	

      <Placemark>
	<styleUrl>#ys</styleUrl>
        <name>58lWitKHBAbq</name>
        <Point><coordinates>-77.0105072721,38.8898028098,0</coordinates></Point>
      </Placemark>
	

      <Placemark>
	<styleUrl>#ys</styleUrl>
        <name>5KVDjj66vzRX</name>
        <Point><coordinates>-77.0059086701,38.8911034279,0</coordinates></Point>
      </Placemark>
	

      <Placemark>
	<styleUrl>#ys</styleUrl>
        <name>5Yf5w5tiLIDB</name>
        <Point><coordinates>-77.007200024,38.890002814,0</coordinates></Point>
      </Placemark>
	

      <Placemark>
	<styleUrl>#ys</styleUrl>
        <name>5cR2GIapHuzT</name>
        <Point><coordinates>-77.0060099275,38.8905919806,0</coordinates></Point>
      </Placemark>
	

	      <Placemark>
		<name>6FY6c0d8IMjz</name>
		<styleUrl>#rs</styleUrl>
		<Point><coordinates>-77.0102984019,38.8896924473,0</coordinates></Point>
		<description>https://www.youtube.com/embed/or1L4ZVNghI</description>
	      </Placemark>
		

	      <Placemark>
		<name>6JbG6I0FrJhn</name>
		<styleUrl>#rs</styleUrl>
		<Point><coordinates>-77.0102950624,38.8898034883,0</coordinates></Point>
		<description>https://www.youtube.com/embed/V617FSr4bOw</description>
	      </Placemark>
		

      <Placemark>
	<styleUrl>#ys</styleUrl>
        <name>76xQPekYvGcu</name>
        <Point><coordinates>-77.0166965981,38.8921044543,0</coordinates></Point>
      </Placemark>
	

      <Placemark>
	<styleUrl>#ys</styleUrl>
        <name>7n9O8ZT8uXvQ</name>
        <Point><coordinates>-77.0108966684,38.8898965565,0</coordinates></Point>
      </Placemark>
	

      <Placemark>
	<styleUrl>#ys</styleUrl>
        <name>8dLyJxfRn3cI</name>
        <Point><coordinates>-77.0102912577,38.8900080402,0</coordinates></Point>
      </Placemark>
	

      <Placemark>
	<styleUrl>#ys</styleUrl>
        <name>8fGidwR3eLor</name>
        <Point><coordinates>-77.0102978605,38.8906059031,0</coordinates></Point>
      </Placemark>
	

      <Placemark>
	<styleUrl>#ys</styleUrl>
        <name>8wZMDTyKo5Tm</name>
        <Point><coordinates>-77.0109950488,38.8904084801,0</coordinates></Point>
      </Placemark>
	

      <Placemark>
	<styleUrl>#ys</styleUrl>
        <name>8zy6GOcBAV5Y</name>
        <Point><coordinates>-77.011392747,38.8922022713,0</coordinates></Point>
      </Placemark>
	

      <Placemark>
	<styleUrl>#ys</styleUrl>
        <name>9quKY3UvWlvg</name>
        <Point><coordinates>-77.0108077996,38.8894951611,0</coordinates></Point>
      </Placemark>
	

      <Placemark>
	<styleUrl>#ys</styleUrl>
        <name>A6nbSYGTQ2hW</name>
        <Point><coordinates>-77.0105007398,38.8901047788,0</coordinates></Point>
      </Placemark>
	

      <Placemark>
	<styleUrl>#ys</styleUrl>
        <name>ACa0xxSznKol</name>
        <Point><coordinates>-77.0116982951,38.8895006383,0</coordinates></Point>
      </Placemark>
	

      <Placemark>
	<styleUrl>#ys</styleUrl>
        <name>AdArLzDy1ObS</name>
        <Point><coordinates>-77.0101987409,38.8896970664,0</coordinates></Point>
      </Placemark>
	

      <Placemark>
	<styleUrl>#ys</styleUrl>
        <name>B0FxCurP0DbS</name>
        <Point><coordinates>-77.010294137,38.8902028058,0</coordinates></Point>
      </Placemark>
	

      <Placemark>
	<styleUrl>#ys</styleUrl>
        <name>BKzCTrgUan1v</name>
        <Point><coordinates>-77.0104947888,38.8897054776,0</coordinates></Point>
      </Placemark>
	

      <Placemark>
	<styleUrl>#ys</styleUrl>
        <name>C5u7WZz0ibfe</name>
        <Point><coordinates>-77.010290729,38.8894920497,0</coordinates></Point>
      </Placemark>
	

	      <Placemark>
		<name>CE7LhOl22vJ9</name>
		<styleUrl>#rs</styleUrl>
		<Point><coordinates>-77.0076074585,38.8900048664,0</coordinates></Point>
		<description>https://www.youtube.com/embed/cO-Pp7mtT8Y</description>
	      </Placemark>
		

      <Placemark>
	<styleUrl>#ys</styleUrl>
        <name>CNrWBNcfCr8w</name>
        <Point><coordinates>-77.010290109,38.8904026465,0</coordinates></Point>
      </Placemark>
	

      <Placemark>
	<styleUrl>#ys</styleUrl>
        <name>CcnyVlqb33aV</name>
        <Point><coordinates>-77.0060027238,38.8909985849,0</coordinates></Point>
      </Placemark>
	

      <Placemark>
	<styleUrl>#ys</styleUrl>
        <name>DSL96z86eN5m</name>
        <Point><coordinates>-77.0114048628,38.892093052,0</coordinates></Point>
      </Placemark>
	

      <Placemark>
	<styleUrl>#ys</styleUrl>
        <name>Dr91Sy9JPaqz</name>
        <Point><coordinates>-77.0119009813,38.8903921998,0</coordinates></Point>
      </Placemark>
	

      <Placemark>
	<styleUrl>#ys</styleUrl>
        <name>EGrFrkDN88km</name>
        <Point><coordinates>-77.0108907697,38.8899064749,0</coordinates></Point>
      </Placemark>
	

      <Placemark>
	<styleUrl>#ys</styleUrl>
        <name>ER1nJCKjJCFA</name>
        <Point><coordinates>-77.0058011818,38.8902921196,0</coordinates></Point>
      </Placemark>
	

      <Placemark>
	<styleUrl>#ys</styleUrl>
        <name>EsFY8ZpmxFYr</name>
        <Point><coordinates>-77.0057927624,38.8904077384,0</coordinates></Point>
      </Placemark>
	

      <Placemark>
	<styleUrl>#ys</styleUrl>
        <name>FYlBctOhdY6q</name>
        <Point><coordinates>-77.0055987874,38.8904975973,0</coordinates></Point>
      </Placemark>
	

      <Placemark>
	<styleUrl>#ys</styleUrl>
        <name>Fb6N8jXHDAFg</name>
        <Point><coordinates>-77.0156906946,38.8905919593,0</coordinates></Point>
      </Placemark>
	

      <Placemark>
	<styleUrl>#ys</styleUrl>
        <name>GQSiMdVA83Bt</name>
        <Point><coordinates>-77.0144932052,38.8920967205,0</coordinates></Point>
      </Placemark>
	

      <Placemark>
	<styleUrl>#ys</styleUrl>
        <name>GVqtVyFGYKxE</name>
        <Point><coordinates>-77.0090078315,38.8954991897,0</coordinates></Point>
      </Placemark>
	

      <Placemark>
	<styleUrl>#ys</styleUrl>
        <name>GvSfsVukvld7</name>
        <Point><coordinates>-77.0129945047,38.8908960593,0</coordinates></Point>
      </Placemark>
	

      <Placemark>
	<styleUrl>#ys</styleUrl>
        <name>H6EqfmJVPSDC</name>
        <Point><coordinates>-77.0125069969,38.8922040691,0</coordinates></Point>
      </Placemark>
	

      <Placemark>
	<styleUrl>#ys</styleUrl>
        <name>HErrRC01EIav</name>
        <Point><coordinates>-77.009397602,38.890396929,0</coordinates></Point>
      </Placemark>
	

	      <Placemark>
		<name>HS34fpbzqg2b</name>
		<styleUrl>#rs</styleUrl>
		<Point><coordinates>-77.0079043663,38.8906971826,0</coordinates></Point>
		<description>https://www.youtube.com/embed/C-ZPAGrhw6I</description>
	      </Placemark>
		

      <Placemark>
	<styleUrl>#ys</styleUrl>
        <name>HX07G51QKPEx</name>
        <Point><coordinates>-77.0103011131,38.8901023042,0</coordinates></Point>
      </Placemark>
	

      <Placemark>
	<styleUrl>#ys</styleUrl>
        <name>I7XN5Ojzw20d</name>
        <Point><coordinates>-77.0059925315,38.8904082114,0</coordinates></Point>
      </Placemark>
	

	      <Placemark>
		<name>IOqrjPvbQx6s</name>
		<styleUrl>#rs</styleUrl>
		<Point><coordinates>-77.0103037411,38.8897081456,0</coordinates></Point>
		<description>https://www.youtube.com/embed/o2titsRYSkg</description>
	      </Placemark>
		

      <Placemark>
	<styleUrl>#ys</styleUrl>
        <name>Iy08Wc2XFNqJ</name>
        <Point><coordinates>-77.0147085092,38.8919995024,0</coordinates></Point>
      </Placemark>
	

      <Placemark>
	<styleUrl>#ys</styleUrl>
        <name>KBi2LV5ZkDfH</name>
        <Point><coordinates>-77.0174056776,38.8921094704,0</coordinates></Point>
      </Placemark>
	

      <Placemark>
	<styleUrl>#ys</styleUrl>
        <name>KUT3TiOVYh7E</name>
        <Point><coordinates>-77.006000307,38.8901929507,0</coordinates></Point>
      </Placemark>
	

	      <Placemark>
		<name>Kmm034ViQJyl</name>
		<styleUrl>#rs</styleUrl>
		<Point><coordinates>-77.0106096047,38.889798113,0</coordinates></Point>
		<description>https://www.youtube.com/embed/HYvH2XiPuLU</description>
	      </Placemark>
		

      <Placemark>
	<styleUrl>#ys</styleUrl>
        <name>LPbCzY5Zbb0P</name>
        <Point><coordinates>-77.0058997211,38.8906908363,0</coordinates></Point>
      </Placemark>
	

	      <Placemark>
		<name>LhPiDTMhUSGL</name>
		<styleUrl>#rs</styleUrl>
		<Point><coordinates>-77.0099953192,38.8900099586,0</coordinates></Point>
		<description>https://www.youtube.com/embed/UfIlXpLsY1g</description>
	      </Placemark>
		

      <Placemark>
	<styleUrl>#ys</styleUrl>
        <name>M2LYglVwxNYk</name>
        <Point><coordinates>-77.0143010145,38.8920918019,0</coordinates></Point>
      </Placemark>
	

      <Placemark>
	<styleUrl>#ys</styleUrl>
        <name>Mij3YHwD8t0t</name>
        <Point><coordinates>-77.0062056142,38.8919000466,0</coordinates></Point>
      </Placemark>
	

      <Placemark>
	<styleUrl>#ys</styleUrl>
        <name>Mth2z4B2v3ko</name>
        <Point><coordinates>-77.0060022641,38.8918968177,0</coordinates></Point>
      </Placemark>
	

      <Placemark>
	<styleUrl>#ys</styleUrl>
        <name>NHruwijUAU0M</name>
        <Point><coordinates>-77.0117962868,38.8932902469,0</coordinates></Point>
      </Placemark>
	

	      <Placemark>
		<name>OcH04ImVxWii</name>
		<styleUrl>#rs</styleUrl>
		<Point><coordinates>-77.0092985969,38.8902980227,0</coordinates></Point>
		<description>https://www.youtube.com/embed/t421erWVC3c</description>
	      </Placemark>
		

      <Placemark>
	<styleUrl>#ys</styleUrl>
        <name>Oql7iaQVgoNl</name>
        <Point><coordinates>-77.0177069616,38.892700579,0</coordinates></Point>
      </Placemark>
	

	      <Placemark>
		<name>PI503wb3YSoh</name>
		<styleUrl>#rs</styleUrl>
		<Point><coordinates>-77.0129924111,38.8898077345,0</coordinates></Point>
		<description>https://www.youtube.com/embed/RZX_xDc_UvA</description>
	      </Placemark>
		

      <Placemark>
	<styleUrl>#ys</styleUrl>
        <name>Pf0Yj1jpQsem</name>
        <Point><coordinates>-77.0035028767,38.893803162,0</coordinates></Point>
      </Placemark>
	

      <Placemark>
	<styleUrl>#ys</styleUrl>
        <name>Q5fmkLNrexWY</name>
        <Point><coordinates>-77.0114945964,38.8918960563,0</coordinates></Point>
      </Placemark>
	

	      <Placemark>
		<name>QjvAsHJ5o501</name>
		<styleUrl>#rs</styleUrl>
		<Point><coordinates>-77.0081981729,38.8913060845,0</coordinates></Point>
		<description>https://www.youtube.com/embed/APiC5kzM_yg</description>
	      </Placemark>
		

      <Placemark>
	<styleUrl>#ys</styleUrl>
        <name>QsFIMA5Zowme</name>
        <Point><coordinates>-77.0135917611,38.8921004199,0</coordinates></Point>
      </Placemark>
	

      <Placemark>
	<styleUrl>#ys</styleUrl>
        <name>RPmQMhhr7IVG</name>
        <Point><coordinates>-77.005796175,38.8910057265,0</coordinates></Point>
      </Placemark>
	

      <Placemark>
	<styleUrl>#ys</styleUrl>
        <name>RfmiOsck22e4</name>
        <Point><coordinates>-77.0106024066,38.890190042,0</coordinates></Point>
      </Placemark>
	

      <Placemark>
	<styleUrl>#ys</styleUrl>
        <name>SINnkDbJKVVy</name>
        <Point><coordinates>-77.0057980927,38.8913991962,0</coordinates></Point>
      </Placemark>
	

      <Placemark>
	<styleUrl>#ys</styleUrl>
        <name>Sk5gvoxK8K1r</name>
        <Point><coordinates>-77.012202045,38.8894076841,0</coordinates></Point>
      </Placemark>
	

      <Placemark>
	<styleUrl>#ys</styleUrl>
        <name>T6crwRF3b40U</name>
        <Point><coordinates>-77.0115901407,38.8899943499,0</coordinates></Point>
      </Placemark>
	

      <Placemark>
	<styleUrl>#ys</styleUrl>
        <name>TRCvC55pmVXD</name>
        <Point><coordinates>-77.0089936599,38.8973076948,0</coordinates></Point>
      </Placemark>
	

      <Placemark>
	<styleUrl>#ys</styleUrl>
        <name>TpOTFnspe5yH</name>
        <Point><coordinates>-77.0058988947,38.8908085456,0</coordinates></Point>
      </Placemark>
	

      <Placemark>
	<styleUrl>#ys</styleUrl>
        <name>U3vPnSCxokUn</name>
        <Point><coordinates>-77.0109087183,38.8898087014,0</coordinates></Point>
      </Placemark>
	

      <Placemark>
	<styleUrl>#ys</styleUrl>
        <name>UJcZiDdVVVUG</name>
        <Point><coordinates>-77.0070987708,38.8894097428,0</coordinates></Point>
      </Placemark>
	

      <Placemark>
	<styleUrl>#ys</styleUrl>
        <name>VPv13yKLMUEX</name>
        <Point><coordinates>-77.0149018971,38.891404396,0</coordinates></Point>
      </Placemark>
	

      <Placemark>
	<styleUrl>#ys</styleUrl>
        <name>VkiQFnIpMH1W</name>
        <Point><coordinates>-77.0090016435,38.8920950793,0</coordinates></Point>
      </Placemark>
	

      <Placemark>
	<styleUrl>#ys</styleUrl>
        <name>W0M6jS61D3P5</name>
        <Point><coordinates>-77.0111956134,38.8901969955,0</coordinates></Point>
      </Placemark>
	

      <Placemark>
	<styleUrl>#ys</styleUrl>
        <name>W5teVKSKYNXo</name>
        <Point><coordinates>-77.0057901332,38.8895917572,0</coordinates></Point>
      </Placemark>
	

      <Placemark>
	<styleUrl>#ys</styleUrl>
        <name>WEoLQ2F7Iydi</name>
        <Point><coordinates>-77.0061002869,38.8906081654,0</coordinates></Point>
      </Placemark>
	

      <Placemark>
	<styleUrl>#ys</styleUrl>
        <name>Wp7B67DcwpQi</name>
        <Point><coordinates>-77.0082098356,38.891301266,0</coordinates></Point>
      </Placemark>
	

      <Placemark>
	<styleUrl>#ys</styleUrl>
        <name>Wp6H4HF5cGPh</name>
        <Point><coordinates>-77.0170978,38.8969937318,0</coordinates></Point>
      </Placemark>
	

      <Placemark>
	<styleUrl>#ys</styleUrl>
        <name>WvNy0mY8LFTq</name>
        <Point><coordinates>-77.0081012864,38.8898038082,0</coordinates></Point>
      </Placemark>
	

      <Placemark>
	<styleUrl>#ys</styleUrl>
        <name>WyOKZccnn8dC</name>
        <Point><coordinates>-77.0156054201,38.8920056506,0</coordinates></Point>
      </Placemark>
	

      <Placemark>
	<styleUrl>#ys</styleUrl>
        <name>XXbKVa1YMVZe</name>
        <Point><coordinates>-77.0119964989,38.8890975207,0</coordinates></Point>
      </Placemark>
	

      <Placemark>
	<styleUrl>#ys</styleUrl>
        <name>Xg6g1UKjAOdd</name>
        <Point><coordinates>-77.0089961525,38.8894091484,0</coordinates></Point>
      </Placemark>
	

      <Placemark>
	<styleUrl>#ys</styleUrl>
        <name>Yv60aO8hsb4H</name>
        <Point><coordinates>-77.0073916758,38.8902907072,0</coordinates></Point>
      </Placemark>
	

      <Placemark>
	<styleUrl>#ys</styleUrl>
        <name>ZA2qdOAiaDJo</name>
        <Point><coordinates>-77.0111028195,38.8920908273,0</coordinates></Point>
      </Placemark>
	

      <Placemark>
	<styleUrl>#ys</styleUrl>
        <name>aRvJC6rVZgd4</name>
        <Point><coordinates>-77.0100959346,38.8918924083,0</coordinates></Point>
      </Placemark>
	

      <Placemark>
	<styleUrl>#ys</styleUrl>
        <name>adtV4zbkXr5x</name>
        <Point><coordinates>-77.0103978197,38.8901923967,0</coordinates></Point>
      </Placemark>
	

      <Placemark>
	<styleUrl>#ys</styleUrl>
        <name>ayocSVsXW3h3</name>
        <Point><coordinates>-77.0104987482,38.8901060719,0</coordinates></Point>
      </Placemark>
	

      <Placemark>
	<styleUrl>#ys</styleUrl>
        <name>b5lCVIHnrm2q</name>
        <Point><coordinates>-77.0104088392,38.8900030248,0</coordinates></Point>
      </Placemark>
	

      <Placemark>
	<styleUrl>#ys</styleUrl>
        <name>bQB00UD5e5jG</name>
        <Point><coordinates>-77.0121066693,38.8915947868,0</coordinates></Point>
      </Placemark>
	

	      <Placemark>
		<name>bTZISxkK39sH</name>
		<styleUrl>#rs</styleUrl>
		<Point><coordinates>-77.0086941552,38.8896918712,0</coordinates></Point>
		<description>https://www.youtube.com/embed/x2WDuF5jsgg</description>
	      </Placemark>
		

      <Placemark>
	<styleUrl>#ys</styleUrl>
        <name>cVT9vWysmxdS</name>
        <Point><coordinates>-77.0098036017,38.8979038451,0</coordinates></Point>
      </Placemark>
	

      <Placemark>
	<styleUrl>#ys</styleUrl>
        <name>dvST93gaZo1o</name>
        <Point><coordinates>-77.0059988662,38.8906041744,0</coordinates></Point>
      </Placemark>
	

      <Placemark>
	<styleUrl>#ys</styleUrl>
        <name>eGOoR3I08FkK</name>
        <Point><coordinates>-77.0106950123,38.8902014882,0</coordinates></Point>
      </Placemark>
	

      <Placemark>
	<styleUrl>#ys</styleUrl>
        <name>elO7ySjdGZub</name>
        <Point><coordinates>-77.0060095328,38.8904980641,0</coordinates></Point>
      </Placemark>
	

      <Placemark>
	<styleUrl>#ys</styleUrl>
        <name>esDUnWVLgG6n</name>
        <Point><coordinates>-77.0074067073,38.8898020441,0</coordinates></Point>
      </Placemark>
	

      <Placemark>
	<styleUrl>#ys</styleUrl>
        <name>fT9hBhlaFgZd</name>
        <Point><coordinates>-77.0104988306,38.8896945143,0</coordinates></Point>
      </Placemark>
	

      <Placemark>
	<styleUrl>#ys</styleUrl>
        <name>fayNJbjcqXWg</name>
        <Point><coordinates>-77.0072061054,38.8901978097,0</coordinates></Point>
      </Placemark>
	

      <Placemark>
	<styleUrl>#ys</styleUrl>
        <name>fhqU4rQ4ZFzO</name>
        <Point><coordinates>-77.0099922238,38.8898965295,0</coordinates></Point>
      </Placemark>
	

      <Placemark>
	<styleUrl>#ys</styleUrl>
        <name>fqMErkRVItV0</name>
        <Point><coordinates>-77.0106011826,38.8902088221,0</coordinates></Point>
      </Placemark>
	

      <Placemark>
	<styleUrl>#ys</styleUrl>
        <name>g5Yl8ERzrXxe</name>
        <Point><coordinates>-77.0100904297,38.8906019666,0</coordinates></Point>
      </Placemark>
	

      <Placemark>
	<styleUrl>#ys</styleUrl>
        <name>gj867lWsCvHv</name>
        <Point><coordinates>-77.0120091975,38.8906069216,0</coordinates></Point>
      </Placemark>
	

      <Placemark>
	<styleUrl>#ys</styleUrl>
        <name>guy64xqjKgEF</name>
        <Point><coordinates>-77.010905387,38.8920936127,0</coordinates></Point>
      </Placemark>
	

      <Placemark>
	<styleUrl>#ys</styleUrl>
        <name>h7fR4kXQv2Mg</name>
        <Point><coordinates>-77.0108946944,38.8920941419,0</coordinates></Point>
      </Placemark>
	

      <Placemark>
	<styleUrl>#ys</styleUrl>
        <name>hL3LsRN1titr</name>
        <Point><coordinates>-77.0112853494,38.8904056503,0</coordinates></Point>
      </Placemark>
	

      <Placemark>
	<styleUrl>#ys</styleUrl>
        <name>hg5pS8dNppFa</name>
        <Point><coordinates>-77.0101090735,38.8897966067,0</coordinates></Point>
      </Placemark>
	

      <Placemark>
	<styleUrl>#ys</styleUrl>
        <name>hgQYuqIrZTls</name>
        <Point><coordinates>-77.010590304,38.8900033734,0</coordinates></Point>
      </Placemark>
	

      <Placemark>
	<styleUrl>#ys</styleUrl>
        <name>hr06Kn7hkUP1</name>
        <Point><coordinates>-77.0105884071,38.8896817914,0</coordinates></Point>
      </Placemark>
	

      <Placemark>
	<styleUrl>#ys</styleUrl>
        <name>i7xUeEr5Ysmm</name>
        <Point><coordinates>-77.0132081093,38.8911928245,0</coordinates></Point>
      </Placemark>
	

      <Placemark>
	<styleUrl>#ys</styleUrl>
        <name>iSylgdmLFlrk</name>
        <Point><coordinates>-77.0120906325,38.8913089779,0</coordinates></Point>
      </Placemark>
	

      <Placemark>
	<styleUrl>#ys</styleUrl>
        <name>ijwcgCCsZfdl</name>
        <Point><coordinates>-77.0140007217,38.8912994753,0</coordinates></Point>
      </Placemark>
	

      <Placemark>
	<styleUrl>#ys</styleUrl>
        <name>j0flaNpLgmi3</name>
        <Point><coordinates>-77.0167902907,38.8921908343,0</coordinates></Point>
      </Placemark>
	

      <Placemark>
	<styleUrl>#ys</styleUrl>
        <name>jNECpFrRhbpg</name>
        <Point><coordinates>-77.0102984137,38.8900974159,0</coordinates></Point>
      </Placemark>
	

      <Placemark>
	<styleUrl>#ys</styleUrl>
        <name>k2X98xAHmHWa</name>
        <Point><coordinates>-77.0094083159,38.8903954391,0</coordinates></Point>
      </Placemark>
	

      <Placemark>
	<styleUrl>#ys</styleUrl>
        <name>kau2NI4P6n48</name>
        <Point><coordinates>-77.0102946962,38.8902915759,0</coordinates></Point>
      </Placemark>
	

      <Placemark>
	<styleUrl>#ys</styleUrl>
        <name>kbHLu1MNgOgl</name>
        <Point><coordinates>-77.0055076898,38.8903072023,0</coordinates></Point>
      </Placemark>
	

      <Placemark>
	<styleUrl>#ys</styleUrl>
        <name>kgoySSVz8sOy</name>
        <Point><coordinates>-77.0115939476,38.8905930324,0</coordinates></Point>
      </Placemark>
	

      <Placemark>
	<styleUrl>#ys</styleUrl>
        <name>l0zTVw1Nz8AZ</name>
        <Point><coordinates>-77.0149960201,38.8920969803,0</coordinates></Point>
      </Placemark>
	

      <Placemark>
	<styleUrl>#ys</styleUrl>
        <name>lZ79WP2S5UUZ</name>
        <Point><coordinates>-77.0183053786,38.8923039296,0</coordinates></Point>
      </Placemark>
	

      <Placemark>
	<styleUrl>#ys</styleUrl>
        <name>leF1m0XwjsTR</name>
        <Point><coordinates>-77.0178062117,38.8920909107,0</coordinates></Point>
      </Placemark>
	

      <Placemark>
	<styleUrl>#ys</styleUrl>
        <name>m2MYha7oj5Up</name>
        <Point><coordinates>-77.0125092566,38.8921902708,0</coordinates></Point>
      </Placemark>
	

      <Placemark>
	<styleUrl>#ys</styleUrl>
        <name>m4XCINGgSKee</name>
        <Point><coordinates>-77.0104001945,38.8901088386,0</coordinates></Point>
      </Placemark>
	

      <Placemark>
	<styleUrl>#ys</styleUrl>
        <name>mD0ZC6PMF71x</name>
        <Point><coordinates>-77.01340018,38.8911021553,0</coordinates></Point>
      </Placemark>
	

      <Placemark>
	<styleUrl>#ys</styleUrl>
        <name>mnp38uv7p0Tz</name>
        <Point><coordinates>-77.0105990941,38.8901983988,0</coordinates></Point>
      </Placemark>
	

      <Placemark>
	<styleUrl>#ys</styleUrl>
        <name>nX0DJVhP5fI0</name>
        <Point><coordinates>-77.0116951925,38.8895010012,0</coordinates></Point>
      </Placemark>
	

      <Placemark>
	<styleUrl>#ys</styleUrl>
        <name>ngnsoQ4PQT8T</name>
        <Point><coordinates>-77.0061957545,38.8907052252,0</coordinates></Point>
      </Placemark>
	

      <Placemark>
	<styleUrl>#ys</styleUrl>
        <name>ns9EbTf56zJM</name>
        <Point><coordinates>-77.0106072212,38.8898926134,0</coordinates></Point>
      </Placemark>
	

      <Placemark>
	<styleUrl>#ys</styleUrl>
        <name>o2rK0URJkqxU</name>
        <Point><coordinates>-77.0110918844,38.8919939326,0</coordinates></Point>
      </Placemark>
	

      <Placemark>
	<styleUrl>#ys</styleUrl>
        <name>oA12cDb5tYGx</name>
        <Point><coordinates>-77.0057987562,38.8914090365,0</coordinates></Point>
      </Placemark>
	

      <Placemark>
	<styleUrl>#ys</styleUrl>
        <name>pN3q5NvwoghI</name>
        <Point><coordinates>-77.0103024665,38.8896981716,0</coordinates></Point>
      </Placemark>
	

      <Placemark>
	<styleUrl>#ys</styleUrl>
        <name>pyIYYPfceFx1</name>
        <Point><coordinates>-77.0058959225,38.8906918369,0</coordinates></Point>
      </Placemark>
	

      <Placemark>
	<styleUrl>#ys</styleUrl>
        <name>qGwtu6qUHfjy</name>
        <Point><coordinates>-77.0104006659,38.8900901311,0</coordinates></Point>
      </Placemark>
	

      <Placemark>
	<styleUrl>#ys</styleUrl>
        <name>qt23NEdtnK7a</name>
        <Point><coordinates>-77.0057024213,38.8903034626,0</coordinates></Point>
      </Placemark>
	

      <Placemark>
	<styleUrl>#ys</styleUrl>
        <name>t1BBA727FN5K</name>
        <Point><coordinates>-77.0114066214,38.8920910306,0</coordinates></Point>
      </Placemark>
	

      <Placemark>
	<styleUrl>#ys</styleUrl>
        <name>tb76lsT2Wakl</name>
        <Point><coordinates>-77.0101961091,38.8897954617,0</coordinates></Point>
      </Placemark>
	

      <Placemark>
	<styleUrl>#ys</styleUrl>
        <name>txk1J3w3EnxD</name>
        <Point><coordinates>-77.0107943252,38.8920976701,0</coordinates></Point>
      </Placemark>
	

      <Placemark>
	<styleUrl>#ys</styleUrl>
        <name>uu11kCrXZa78</name>
        <Point><coordinates>-77.0107990805,38.8894993413,0</coordinates></Point>
      </Placemark>
	

      <Placemark>
	<styleUrl>#ys</styleUrl>
        <name>v3UxT95zkOYb</name>
        <Point><coordinates>-77.0114973644,38.8920922021,0</coordinates></Point>
      </Placemark>
	

      <Placemark>
	<styleUrl>#ys</styleUrl>
        <name>v63BKYYYkJiU</name>
        <Point><coordinates>-77.0142939974,38.8897903367,0</coordinates></Point>
      </Placemark>
	

      <Placemark>
	<styleUrl>#ys</styleUrl>
        <name>xBtnebciFY2J</name>
        <Point><coordinates>-77.0057922968,38.8905950038,0</coordinates></Point>
      </Placemark>
	

      <Placemark>
	<styleUrl>#ys</styleUrl>
        <name>xwnqKGnmIyH4</name>
        <Point><coordinates>-77.0113042969,38.8920919719,0</coordinates></Point>
      </Placemark>
	

      <Placemark>
	<styleUrl>#ys</styleUrl>
        <name>xy2JnbdsJG5q</name>
        <Point><coordinates>-77.010208741,38.8899021073,0</coordinates></Point>
      </Placemark>
	

      <Placemark>
	<styleUrl>#ys</styleUrl>
        <name>ySO9aSEvs0Fx</name>
        <Point><coordinates>-77.0100987083,38.889890176,0</coordinates></Point>
      </Placemark>
	

      <Placemark>
	<styleUrl>#ys</styleUrl>
        <name>yhwj3W6hlWUL</name>
        <Point><coordinates>-77.0059069046,38.8904084395,0</coordinates></Point>
      </Placemark>
	

      <Placemark>
	<styleUrl>#ys</styleUrl>
        <name>z32a3bWM4IU5</name>
        <Point><coordinates>-77.0110050708,38.8902902638,0</coordinates></Point>
      </Placemark>
	

      <Placemark>
	<styleUrl>#ys</styleUrl>
        <name>0EG7IUYy1Vs5</name>
        <Point><coordinates>-77.006590294,38.8919901404,0</coordinates></Point>
      </Placemark>
	

      <Placemark>
	<styleUrl>#ys</styleUrl>
        <name>1weMBnTsMDtH</name>
        <Point><coordinates>-77.0057045481,38.8908085939,0</coordinates></Point>
      </Placemark>
	

      <Placemark>
	<styleUrl>#ys</styleUrl>
        <name>2SYR2Wjra3ic</name>
        <Point><coordinates>-77.0116066779,38.8899906733,0</coordinates></Point>
      </Placemark>
	

      <Placemark>
	<styleUrl>#ys</styleUrl>
        <name>2bujYLrW7vAX</name>
        <Point><coordinates>-77.0105085516,38.890506254,0</coordinates></Point>
      </Placemark>
	

      <Placemark>
	<styleUrl>#ys</styleUrl>
        <name>3ViaXA7t2cYc</name>
        <Point><coordinates>-77.0101020761,38.8895994521,0</coordinates></Point>
      </Placemark>
	

      <Placemark>
	<styleUrl>#ys</styleUrl>
        <name>3pzrc2F2Rr0q</name>
        <Point><coordinates>-77.0144069886,38.8923984939,0</coordinates></Point>
      </Placemark>
	

      <Placemark>
	<styleUrl>#ys</styleUrl>
        <name>44VAasWbJ4Bh</name>
        <Point><coordinates>-77.0080087499,38.889905767,0</coordinates></Point>
      </Placemark>
	

      <Placemark>
	<styleUrl>#ys</styleUrl>
        <name>4nZvifrR6Gb5</name>
        <Point><coordinates>-77.0094916164,38.8904917463,0</coordinates></Point>
      </Placemark>
	

	      <Placemark>
		<name>55IZysHw38wO</name>
		<styleUrl>#rs</styleUrl>
		<Point><coordinates>-77.0101005178,38.8898917629,0</coordinates></Point>
		<description>https://www.youtube.com/embed/JaD8DcKBFr8</description>
	      </Placemark>
		

      <Placemark>
	<styleUrl>#ys</styleUrl>
        <name>5an2kTUFQs2t</name>
        <Point><coordinates>-77.008809094,38.8899041394,0</coordinates></Point>
      </Placemark>
	

      <Placemark>
	<styleUrl>#ys</styleUrl>
        <name>7Fu9YJVZmNkj</name>
        <Point><coordinates>-77.0122926309,38.8905902643,0</coordinates></Point>
      </Placemark>
	

      <Placemark>
	<styleUrl>#ys</styleUrl>
        <name>7dlSyXDWtlyA</name>
        <Point><coordinates>-77.0101996474,38.8901047198,0</coordinates></Point>
      </Placemark>
	

	      <Placemark>
		<name>7fckI1220tbu</name>
		<styleUrl>#rs</styleUrl>
		<Point><coordinates>-77.0102973047,38.8900071315,0</coordinates></Point>
		<description>https://www.youtube.com/embed/29_aiqsHO4k</description>
	      </Placemark>
		

      <Placemark>
	<styleUrl>#ys</styleUrl>
        <name>8KdEh2A5hBi1</name>
        <Point><coordinates>-77.0102095859,38.8899061153,0</coordinates></Point>
      </Placemark>
	

	      <Placemark>
		<name>8cSaamVcsMri</name>
		<styleUrl>#rs</styleUrl>
		<Point><coordinates>-77.0093081795,38.8903010789,0</coordinates></Point>
		<description>https://www.youtube.com/embed/rUlfaPrzdag</description>
	      </Placemark>
		

      <Placemark>
	<styleUrl>#ys</styleUrl>
        <name>8sI3e6yy30eh</name>
        <Point><coordinates>-77.0060006406,38.8906085131,0</coordinates></Point>
      </Placemark>
	

      <Placemark>
	<styleUrl>#ys</styleUrl>
        <name>9YKTu0zdQL5F</name>
        <Point><coordinates>-77.0110986919,38.8902033099,0</coordinates></Point>
      </Placemark>
	

      <Placemark>
	<styleUrl>#ys</styleUrl>
        <name>9dW7FrFj9iK9</name>
        <Point><coordinates>-77.0085090609,38.8921059666,0</coordinates></Point>
      </Placemark>
	

      <Placemark>
	<styleUrl>#ys</styleUrl>
        <name>A5fvZX1c5AVh</name>
        <Point><coordinates>-77.0059077337,38.8910906592,0</coordinates></Point>
      </Placemark>
	

      <Placemark>
	<styleUrl>#ys</styleUrl>
        <name>A8Jiah39MrVY</name>
        <Point><coordinates>-77.0103945015,38.8898914984,0</coordinates></Point>
      </Placemark>
	

	      <Placemark>
		<name>AYijYnzI0Gbr</name>
		<styleUrl>#rs</styleUrl>
		<Point><coordinates>-77.007200496,38.8899002411,0</coordinates></Point>
		<description>https://www.youtube.com/embed/sQ5LeskZ2WY</description>
	      </Placemark>
		

	      <Placemark>
		<name>AwME4HLA6vtW</name>
		<styleUrl>#rs</styleUrl>
		<Point><coordinates>-77.0089910943,38.8905022684,0</coordinates></Point>
		<description>https://www.youtube.com/embed/Cky2qUrM1ww</description>
	      </Placemark>
		

      <Placemark>
	<styleUrl>#ys</styleUrl>
        <name>BOOcuvXupLJl</name>
        <Point><coordinates>-77.012198859,38.892309297,0</coordinates></Point>
      </Placemark>
	

      <Placemark>
	<styleUrl>#ys</styleUrl>
        <name>C4IM4xTcxLWH</name>
        <Point><coordinates>-77.0108936511,38.8899081304,0</coordinates></Point>
      </Placemark>
	

      <Placemark>
	<styleUrl>#ys</styleUrl>
        <name>CQtHtEEczheT</name>
        <Point><coordinates>-77.0151981901,38.8915050997,0</coordinates></Point>
      </Placemark>
	

      <Placemark>
	<styleUrl>#ys</styleUrl>
        <name>Cm9AtHkZ3ETV</name>
        <Point><coordinates>-77.015891886,38.8919091001,0</coordinates></Point>
      </Placemark>
	

      <Placemark>
	<styleUrl>#ys</styleUrl>
        <name>CpGC5Hp2a2i8</name>
        <Point><coordinates>-77.0059923265,38.8904966722,0</coordinates></Point>
      </Placemark>
	

      <Placemark>
	<styleUrl>#ys</styleUrl>
        <name>D4XPRR98Wy29</name>
        <Point><coordinates>-77.0108925923,38.8921022689,0</coordinates></Point>
      </Placemark>
	

      <Placemark>
	<styleUrl>#ys</styleUrl>
        <name>DAU0DKl3oD7T</name>
        <Point><coordinates>-77.0183979586,38.889490488,0</coordinates></Point>
      </Placemark>
	

      <Placemark>
	<styleUrl>#ys</styleUrl>
        <name>DCPF0ZAUa2yQ</name>
        <Point><coordinates>-77.0059972161,38.8906069344,0</coordinates></Point>
      </Placemark>
	

      <Placemark>
	<styleUrl>#ys</styleUrl>
        <name>DJzdPcAuKKwU</name>
        <Point><coordinates>-77.0099960775,38.8899938483,0</coordinates></Point>
      </Placemark>
	

      <Placemark>
	<styleUrl>#ys</styleUrl>
        <name>DLj1sth1JqF4</name>
        <Point><coordinates>-77.0105969494,38.8896888552,0</coordinates></Point>
      </Placemark>
	

      <Placemark>
	<styleUrl>#ys</styleUrl>
        <name>DX3RBg66JdtR</name>
        <Point><coordinates>-77.0103988449,38.8900053382,0</coordinates></Point>
      </Placemark>
	

      <Placemark>
	<styleUrl>#ys</styleUrl>
        <name>DzTb5lFGVF6I</name>
        <Point><coordinates>-77.010208344,38.8902947674,0</coordinates></Point>
      </Placemark>
	

      <Placemark>
	<styleUrl>#ys</styleUrl>
        <name>ECMDGMW3Pjan</name>
        <Point><coordinates>-77.0059039768,38.8904932697,0</coordinates></Point>
      </Placemark>
	

      <Placemark>
	<styleUrl>#ys</styleUrl>
        <name>GTR3KbbVfdwk</name>
        <Point><coordinates>-77.0056957866,38.8905931333,0</coordinates></Point>
      </Placemark>
	

	      <Placemark>
		<name>HSEUpO8N6K1f</name>
		<styleUrl>#rs</styleUrl>
		<Point><coordinates>-77.0106040925,38.8902063081,0</coordinates></Point>
		<description>https://www.youtube.com/embed/ZJrOZ8KFsmc</description>
	      </Placemark>
		

      <Placemark>
	<styleUrl>#ys</styleUrl>
        <name>HlQkqJT5gxWp</name>
        <Point><coordinates>-77.0057019331,38.8913054315,0</coordinates></Point>
      </Placemark>
	

      <Placemark>
	<styleUrl>#ys</styleUrl>
        <name>IROwtVofuVw4</name>
        <Point><coordinates>-77.011592914,38.892094976,0</coordinates></Point>
      </Placemark>
	

      <Placemark>
	<styleUrl>#ys</styleUrl>
        <name>Ia20GqUqvh9k</name>
        <Point><coordinates>-77.0099018065,38.8922042016,0</coordinates></Point>
      </Placemark>
	

      <Placemark>
	<styleUrl>#ys</styleUrl>
        <name>JhUoK1Rdy3K8</name>
        <Point><coordinates>-77.0127992782,38.892203359,0</coordinates></Point>
      </Placemark>
	

	      <Placemark>
		<name>KAu8c8e4lbDG</name>
		<styleUrl>#rs</styleUrl>
		<Point><coordinates>-77.0103959432,38.8896004536,0</coordinates></Point>
		<description>https://www.youtube.com/embed/S5zRXZkg93s</description>
	      </Placemark>
		

      <Placemark>
	<styleUrl>#ys</styleUrl>
        <name>KItOt5iQSOuj</name>
        <Point><coordinates>-77.0057991764,38.8913000287,0</coordinates></Point>
      </Placemark>
	

      <Placemark>
	<styleUrl>#ys</styleUrl>
        <name>LD2l7k9rkDET</name>
        <Point><coordinates>-77.0133918242,38.8907970693,0</coordinates></Point>
      </Placemark>
	

      <Placemark>
	<styleUrl>#ys</styleUrl>
        <name>LD3lVuEGs2i6</name>
        <Point><coordinates>-77.0160980159,38.8918942,0</coordinates></Point>
      </Placemark>
	

	      <Placemark>
		<name>LD5GrQx0MtsI</name>
		<styleUrl>#rs</styleUrl>
		<Point><coordinates>-77.0103020763,38.889601223,0</coordinates></Point>
		<description>https://www.youtube.com/embed/VQ2DgfJU5Fw</description>
	      </Placemark>
		

      <Placemark>
	<styleUrl>#ys</styleUrl>
        <name>LNmOCjuf1l43</name>
        <Point><coordinates>-77.0060921834,38.8907957948,0</coordinates></Point>
      </Placemark>
	

      <Placemark>
	<styleUrl>#ys</styleUrl>
        <name>LQKqUqbhU50v</name>
        <Point><coordinates>-77.0102967644,38.8897037809,0</coordinates></Point>
      </Placemark>
	

      <Placemark>
	<styleUrl>#ys</styleUrl>
        <name>LUh9hn7M31K0</name>
        <Point><coordinates>-77.0059915254,38.8913060708,0</coordinates></Point>
      </Placemark>
	

	      <Placemark>
		<name>MGIywYHb2lB8</name>
		<styleUrl>#rs</styleUrl>
		<Point><coordinates>-77.0073922778,38.8903030808,0</coordinates></Point>
		<description>https://www.youtube.com/embed/7117bRh3f0Y</description>
	      </Placemark>
		

      <Placemark>
	<styleUrl>#ys</styleUrl>
        <name>MyEATFUg1v1W</name>
        <Point><coordinates>-77.0089972544,38.8854073223,0</coordinates></Point>
      </Placemark>
	

      <Placemark>
	<styleUrl>#ys</styleUrl>
        <name>OW32M7s2e7u4</name>
        <Point><coordinates>-77.0106991447,38.889994563,0</coordinates></Point>
      </Placemark>
	

      <Placemark>
	<styleUrl>#ys</styleUrl>
        <name>OWi3v66j361x</name>
        <Point><coordinates>-77.0143981341,38.8923044636,0</coordinates></Point>
      </Placemark>
	

      <Placemark>
	<styleUrl>#ys</styleUrl>
        <name>OaWWf0OzCIlu</name>
        <Point><coordinates>-77.0132061146,38.891201627,0</coordinates></Point>
      </Placemark>
	

      <Placemark>
	<styleUrl>#ys</styleUrl>
        <name>OknuYj7U0EuV</name>
        <Point><coordinates>-77.006096629,38.8913002744,0</coordinates></Point>
      </Placemark>
	

      <Placemark>
	<styleUrl>#ys</styleUrl>
        <name>OosWFUTtaLtL</name>
        <Point><coordinates>-77.0044974635,38.8911975622,0</coordinates></Point>
      </Placemark>
	

	      <Placemark>
		<name>OqD8bxN4Nnkt</name>
		<styleUrl>#rs</styleUrl>
		<Point><coordinates>-77.0104037833,38.8897059233,0</coordinates></Point>
		<description>https://www.youtube.com/embed/wofQgB9zFZY</description>
	      </Placemark>
		

      <Placemark>
	<styleUrl>#ys</styleUrl>
        <name>Ot1PcHJjfUHC</name>
        <Point><coordinates>-77.0064017778,38.8911991969,0</coordinates></Point>
      </Placemark>
	

      <Placemark>
	<styleUrl>#ys</styleUrl>
        <name>PmUo2kvT5qCt</name>
        <Point><coordinates>-77.0084941057,38.8920017151,0</coordinates></Point>
      </Placemark>
	

      <Placemark>
	<styleUrl>#ys</styleUrl>
        <name>Q6DY9FC1N3Rp</name>
        <Point><coordinates>-77.0109062486,38.8895996096,0</coordinates></Point>
      </Placemark>
	

	      <Placemark>
		<name>Qef9FWcq57B2</name>
		<styleUrl>#rs</styleUrl>
		<Point><coordinates>-77.0108016196,38.8899062437,0</coordinates></Point>
		<description>https://www.youtube.com/embed/KWgyhiqXAyw</description>
	      </Placemark>
		

	      <Placemark>
		<name>QgPXUnbdhx3q</name>
		<styleUrl>#rs</styleUrl>
		<Point><coordinates>-77.0097058564,38.8911904579,0</coordinates></Point>
		<description>https://www.youtube.com/embed/qCApZ16sb2I</description>
	      </Placemark>
		

      <Placemark>
	<styleUrl>#ys</styleUrl>
        <name>QxqgND9HYqZb</name>
        <Point><coordinates>-77.0110082021,38.8904080411,0</coordinates></Point>
      </Placemark>
	

      <Placemark>
	<styleUrl>#ys</styleUrl>
        <name>Rdp92xq3X0uT</name>
        <Point><coordinates>-77.0060057042,38.890497249,0</coordinates></Point>
      </Placemark>
	

      <Placemark>
	<styleUrl>#ys</styleUrl>
        <name>S2fZ6snkrKpA</name>
        <Point><coordinates>-77.0103082997,38.889504855,0</coordinates></Point>
      </Placemark>
	

      <Placemark>
	<styleUrl>#ys</styleUrl>
        <name>SVCC538Rh28I</name>
        <Point><coordinates>-77.0100085064,38.8898039706,0</coordinates></Point>
      </Placemark>
	

      <Placemark>
	<styleUrl>#ys</styleUrl>
        <name>SYRPFf60bLtJ</name>
        <Point><coordinates>-77.0055939554,38.8904913803,0</coordinates></Point>
      </Placemark>
	

      <Placemark>
	<styleUrl>#ys</styleUrl>
        <name>SZmLPT3JBUOV</name>
        <Point><coordinates>-77.014296377,38.8921992709,0</coordinates></Point>
      </Placemark>
	

      <Placemark>
	<styleUrl>#ys</styleUrl>
        <name>TNi4F73rBo86</name>
        <Point><coordinates>-77.0103980998,38.8898949775,0</coordinates></Point>
      </Placemark>
	

      <Placemark>
	<styleUrl>#ys</styleUrl>
        <name>TgTj4tYCcJjx</name>
        <Point><coordinates>-77.0111068428,38.8920956013,0</coordinates></Point>
      </Placemark>
	

      <Placemark>
	<styleUrl>#ys</styleUrl>
        <name>TzNP4slvH8hH</name>
        <Point><coordinates>-77.0090991437,38.8901012377,0</coordinates></Point>
      </Placemark>
	

      <Placemark>
	<styleUrl>#ys</styleUrl>
        <name>U5C7k66aelRQ</name>
        <Point><coordinates>-77.0112950096,38.8921094364,0</coordinates></Point>
      </Placemark>
	

      <Placemark>
	<styleUrl>#ys</styleUrl>
        <name>U5eBZ5Gm1ogq</name>
        <Point><coordinates>-77.0119994922,38.8921006355,0</coordinates></Point>
      </Placemark>
	

      <Placemark>
	<styleUrl>#ys</styleUrl>
        <name>U6EA5mgSkTWR</name>
        <Point><coordinates>-77.0108008004,38.8904060786,0</coordinates></Point>
      </Placemark>
	

      <Placemark>
	<styleUrl>#ys</styleUrl>
        <name>UIQNpWMQtfbc</name>
        <Point><coordinates>-77.0106088253,38.890198375,0</coordinates></Point>
      </Placemark>
	

      <Placemark>
	<styleUrl>#ys</styleUrl>
        <name>UfLsZvsRkInl</name>
        <Point><coordinates>-77.0059005819,38.890507546,0</coordinates></Point>
      </Placemark>
	

      <Placemark>
	<styleUrl>#ys</styleUrl>
        <name>VXQewijq1iuR</name>
        <Point><coordinates>-77.0098078393,38.8899995918,0</coordinates></Point>
      </Placemark>
	

      <Placemark>
	<styleUrl>#ys</styleUrl>
        <name>VbcpP4s6YsUO</name>
        <Point><coordinates>-77.0174072057,38.892193884,0</coordinates></Point>
      </Placemark>
	

      <Placemark>
	<styleUrl>#ys</styleUrl>
        <name>W7VwKbtpEtm0</name>
        <Point><coordinates>-77.0092924196,38.8911072455,0</coordinates></Point>
      </Placemark>
	

      <Placemark>
	<styleUrl>#ys</styleUrl>
        <name>WDIGXfQaTUL6</name>
        <Point><coordinates>-77.0103047655,38.8898987045,0</coordinates></Point>
      </Placemark>
	

      <Placemark>
	<styleUrl>#ys</styleUrl>
        <name>XBDMuKJHZYGP</name>
        <Point><coordinates>-77.0090027161,38.8910952708,0</coordinates></Point>
      </Placemark>
	

      <Placemark>
	<styleUrl>#ys</styleUrl>
        <name>XMj0WfPuXF8W</name>
        <Point><coordinates>-77.0124049242,38.8909076755,0</coordinates></Point>
      </Placemark>
	

      <Placemark>
	<styleUrl>#ys</styleUrl>
        <name>XNr4jFTh6grE</name>
        <Point><coordinates>-77.0161978354,38.8919952424,0</coordinates></Point>
      </Placemark>
	

      <Placemark>
	<styleUrl>#ys</styleUrl>
        <name>Y4RZanGe3Ye5</name>
        <Point><coordinates>-77.0060024725,38.8906033789,0</coordinates></Point>
      </Placemark>
	

      <Placemark>
	<styleUrl>#ys</styleUrl>
        <name>YQcLUkT6LWJU</name>
        <Point><coordinates>-77.0142990983,38.8922925934,0</coordinates></Point>
      </Placemark>
	

      <Placemark>
	<styleUrl>#ys</styleUrl>
        <name>Yl9407p2WPZh</name>
        <Point><coordinates>-77.0110079654,38.8903936658,0</coordinates></Point>
      </Placemark>
	

      <Placemark>
	<styleUrl>#ys</styleUrl>
        <name>ZdPRCqRIOeZ7</name>
        <Point><coordinates>-77.0058085307,38.890609813,0</coordinates></Point>
      </Placemark>
	

      <Placemark>
	<styleUrl>#ys</styleUrl>
        <name>aQ7YeQ31lz32</name>
        <Point><coordinates>-77.0073936587,38.898600938,0</coordinates></Point>
      </Placemark>
	

      <Placemark>
	<styleUrl>#ys</styleUrl>
        <name>aVgD0UFi656A</name>
        <Point><coordinates>-77.0057904192,38.8906049346,0</coordinates></Point>
      </Placemark>
	

      <Placemark>
	<styleUrl>#ys</styleUrl>
        <name>akK49L4aRpbh</name>
        <Point><coordinates>-77.0100013593,38.890097542,0</coordinates></Point>
      </Placemark>
	

      <Placemark>
	<styleUrl>#ys</styleUrl>
        <name>b0gyazQqn9kx</name>
        <Point><coordinates>-77.0109956927,38.8897083762,0</coordinates></Point>
      </Placemark>
	

      <Placemark>
	<styleUrl>#ys</styleUrl>
        <name>bHrrdOH7wawk</name>
        <Point><coordinates>-77.010291846,38.8897915796,0</coordinates></Point>
      </Placemark>
	

      <Placemark>
	<styleUrl>#ys</styleUrl>
        <name>bdTqjLrHVvlz</name>
        <Point><coordinates>-77.0056953741,38.8905941944,0</coordinates></Point>
      </Placemark>
	

      <Placemark>
	<styleUrl>#ys</styleUrl>
        <name>c19fWQt5MuUZ</name>
        <Point><coordinates>-77.0056913836,38.8906952532,0</coordinates></Point>
      </Placemark>
	

      <Placemark>
	<styleUrl>#ys</styleUrl>
        <name>c1R6PELD0RB9</name>
        <Point><coordinates>-77.0184085837,38.8923068608,0</coordinates></Point>
      </Placemark>
	

      <Placemark>
	<styleUrl>#ys</styleUrl>
        <name>cSQU65ufjt3T</name>
        <Point><coordinates>-77.0068982915,38.8899958562,0</coordinates></Point>
      </Placemark>
	

      <Placemark>
	<styleUrl>#ys</styleUrl>
        <name>d7W6peU7P7SA</name>
        <Point><coordinates>-77.008709396,38.889906456,0</coordinates></Point>
      </Placemark>
	

      <Placemark>
	<styleUrl>#ys</styleUrl>
        <name>dFjRFNSJiPub</name>
        <Point><coordinates>-77.0060994952,38.8910028272,0</coordinates></Point>
      </Placemark>
	

      <Placemark>
	<styleUrl>#ys</styleUrl>
        <name>dZY4EmEcSdUF</name>
        <Point><coordinates>-77.0115912129,38.8894931983,0</coordinates></Point>
      </Placemark>
	

      <Placemark>
	<styleUrl>#ys</styleUrl>
        <name>doDNC4fglBfK</name>
        <Point><coordinates>-77.0115993089,38.8920086181,0</coordinates></Point>
      </Placemark>
	

      <Placemark>
	<styleUrl>#ys</styleUrl>
        <name>e1dOEAyeLJRl</name>
        <Point><coordinates>-77.0059908743,38.8905086172,0</coordinates></Point>
      </Placemark>
	

      <Placemark>
	<styleUrl>#ys</styleUrl>
        <name>e1gcuShcWxYz</name>
        <Point><coordinates>-77.0099073135,38.8900986295,0</coordinates></Point>
      </Placemark>
	

      <Placemark>
	<styleUrl>#ys</styleUrl>
        <name>e5G2vpJ600AX</name>
        <Point><coordinates>-77.0102933404,38.8922041319,0</coordinates></Point>
      </Placemark>
	

      <Placemark>
	<styleUrl>#ys</styleUrl>
        <name>eF3Lal3mcehk</name>
        <Point><coordinates>-77.0085099319,38.8921074097,0</coordinates></Point>
      </Placemark>
	

      <Placemark>
	<styleUrl>#ys</styleUrl>
        <name>fgmYI9BqZIj8</name>
        <Point><coordinates>-77.0146027014,38.8912979734,0</coordinates></Point>
      </Placemark>
	

      <Placemark>
	<styleUrl>#ys</styleUrl>
        <name>fmSbzMOkFsdx</name>
        <Point><coordinates>-77.0088922503,38.8924004424,0</coordinates></Point>
      </Placemark>
	

      <Placemark>
	<styleUrl>#ys</styleUrl>
        <name>fpdroYF3R9Fm</name>
        <Point><coordinates>-77.0099003296,38.8900039413,0</coordinates></Point>
      </Placemark>
	

      <Placemark>
	<styleUrl>#ys</styleUrl>
        <name>fx1TSv3VIOZF</name>
        <Point><coordinates>-77.0056904059,38.8903969126,0</coordinates></Point>
      </Placemark>
	

      <Placemark>
	<styleUrl>#ys</styleUrl>
        <name>fxUqhz7cwLRV</name>
        <Point><coordinates>-77.0079943433,38.8910944317,0</coordinates></Point>
      </Placemark>
	

      <Placemark>
	<styleUrl>#ys</styleUrl>
        <name>gDUGUplC0cfv</name>
        <Point><coordinates>-77.0103911078,38.8900934024,0</coordinates></Point>
      </Placemark>
	

      <Placemark>
	<styleUrl>#ys</styleUrl>
        <name>gjpmATk0APyQ</name>
        <Point><coordinates>-77.0101035171,38.8919078321,0</coordinates></Point>
      </Placemark>
	

      <Placemark>
	<styleUrl>#ys</styleUrl>
        <name>h7o5lCy59fQJ</name>
        <Point><coordinates>-77.0109909313,38.8908033753,0</coordinates></Point>
      </Placemark>
	

      <Placemark>
	<styleUrl>#ys</styleUrl>
        <name>h8BjMg20Fk7s</name>
        <Point><coordinates>-77.0103086796,38.8899079534,0</coordinates></Point>
      </Placemark>
	

      <Placemark>
	<styleUrl>#ys</styleUrl>
        <name>iLT5LyXUlPV9</name>
        <Point><coordinates>-77.0103990302,38.8895068994,0</coordinates></Point>
      </Placemark>
	

      <Placemark>
	<styleUrl>#ys</styleUrl>
        <name>ilcI0e6d52dL</name>
        <Point><coordinates>-77.0174095935,38.8918952195,0</coordinates></Point>
      </Placemark>
	

      <Placemark>
	<styleUrl>#ys</styleUrl>
        <name>jYwFYXnCB8gz</name>
        <Point><coordinates>-77.0082956683,38.8898053285,0</coordinates></Point>
      </Placemark>
	

      <Placemark>
	<styleUrl>#ys</styleUrl>
        <name>k7KE6Yc6SkoA</name>
        <Point><coordinates>-77.0103027986,38.890405157,0</coordinates></Point>
      </Placemark>
	

      <Placemark>
	<styleUrl>#ys</styleUrl>
        <name>kE1Q7n05iwvU</name>
        <Point><coordinates>-77.0058953312,38.8904932403,0</coordinates></Point>
      </Placemark>
	

      <Placemark>
	<styleUrl>#ys</styleUrl>
        <name>kLb23eMMSAyI</name>
        <Point><coordinates>-77.0107038087,38.8901923395,0</coordinates></Point>
      </Placemark>
	

      <Placemark>
	<styleUrl>#ys</styleUrl>
        <name>kfqc0s8c2Kkw</name>
        <Point><coordinates>-77.0143067317,38.8921007866,0</coordinates></Point>
      </Placemark>
	

      <Placemark>
	<styleUrl>#ys</styleUrl>
        <name>m4GwUAyHbszV</name>
        <Point><coordinates>-77.0127923833,38.8922012079,0</coordinates></Point>
      </Placemark>
	

      <Placemark>
	<styleUrl>#ys</styleUrl>
        <name>mAA1uOERKzpN</name>
        <Point><coordinates>-77.005903807,38.8903929922,0</coordinates></Point>
      </Placemark>
	

      <Placemark>
	<styleUrl>#ys</styleUrl>
        <name>nNtURaD5Wqui</name>
        <Point><coordinates>-77.0110991359,38.8919969516,0</coordinates></Point>
      </Placemark>
	

      <Placemark>
	<styleUrl>#ys</styleUrl>
        <name>nQHStDim8Buj</name>
        <Point><coordinates>-77.0104905986,38.8901012058,0</coordinates></Point>
      </Placemark>
	

      <Placemark>
	<styleUrl>#ys</styleUrl>
        <name>oArZAyaryDzq</name>
        <Point><coordinates>-77.0174044593,38.8918994115,0</coordinates></Point>
      </Placemark>
	

      <Placemark>
	<styleUrl>#ys</styleUrl>
        <name>od1GNh73ozPF</name>
        <Point><coordinates>-77.0082907977,38.8920073062,0</coordinates></Point>
      </Placemark>
	

      <Placemark>
	<styleUrl>#ys</styleUrl>
        <name>oq59QSJY1eYO</name>
        <Point><coordinates>-77.0102920191,38.8900023088,0</coordinates></Point>
      </Placemark>
	

      <Placemark>
	<styleUrl>#ys</styleUrl>
        <name>osDikQviK5Lo</name>
        <Point><coordinates>-77.0125082346,38.8922034409,0</coordinates></Point>
      </Placemark>
	

      <Placemark>
	<styleUrl>#ys</styleUrl>
        <name>p2IW8kMZuc0c</name>
        <Point><coordinates>-77.0120085603,38.8905944821,0</coordinates></Point>
      </Placemark>
	

      <Placemark>
	<styleUrl>#ys</styleUrl>
        <name>pF7XCEbbEFZa</name>
        <Point><coordinates>-77.0105030691,38.8900983439,0</coordinates></Point>
      </Placemark>
	

      <Placemark>
	<styleUrl>#ys</styleUrl>
        <name>pGwKALiliQd8</name>
        <Point><coordinates>-77.0133927005,38.8910960084,0</coordinates></Point>
      </Placemark>
	

      <Placemark>
	<styleUrl>#ys</styleUrl>
        <name>pcNb6Hz5I5Wk</name>
        <Point><coordinates>-77.011394288,38.8921070445,0</coordinates></Point>
      </Placemark>
	

      <Placemark>
	<styleUrl>#ys</styleUrl>
        <name>pfoErV7XQ8CF</name>
        <Point><coordinates>-77.0161030468,38.8912091676,0</coordinates></Point>
      </Placemark>
	

      <Placemark>
	<styleUrl>#ys</styleUrl>
        <name>pwLo9ArrdDdt</name>
        <Point><coordinates>-77.0099065952,38.8905967518,0</coordinates></Point>
      </Placemark>
	

      <Placemark>
	<styleUrl>#ys</styleUrl>
        <name>r5iaoEZPi7qM</name>
        <Point><coordinates>-77.0060085703,38.8907025299,0</coordinates></Point>
      </Placemark>
	

      <Placemark>
	<styleUrl>#ys</styleUrl>
        <name>rNVZoDWWWg1Z</name>
        <Point><coordinates>-77.0061902604,38.8911092044,0</coordinates></Point>
      </Placemark>
	

      <Placemark>
	<styleUrl>#ys</styleUrl>
        <name>reu60mHQDzBX</name>
        <Point><coordinates>-77.0082978648,38.8913059355,0</coordinates></Point>
      </Placemark>
	

      <Placemark>
	<styleUrl>#ys</styleUrl>
        <name>rpHKA3qfYA5y</name>
        <Point><coordinates>-77.0075901457,38.8910080002,0</coordinates></Point>
      </Placemark>
	

      <Placemark>
	<styleUrl>#ys</styleUrl>
        <name>rx8AvgxkFeGd</name>
        <Point><coordinates>-77.0106001322,38.8898900575,0</coordinates></Point>
      </Placemark>
	

      <Placemark>
	<styleUrl>#ys</styleUrl>
        <name>sK1F7q5Fv7IL</name>
        <Point><coordinates>-77.0103936283,38.8899074168,0</coordinates></Point>
      </Placemark>
	

      <Placemark>
	<styleUrl>#ys</styleUrl>
        <name>sfXlJdLx1tCo</name>
        <Point><coordinates>-77.0059000195,38.8910971302,0</coordinates></Point>
      </Placemark>
	

      <Placemark>
	<styleUrl>#ys</styleUrl>
        <name>tBA42pTcwWn0</name>
        <Point><coordinates>-77.0057077917,38.8907948703,0</coordinates></Point>
      </Placemark>
	

      <Placemark>
	<styleUrl>#ys</styleUrl>
        <name>u4gLoPgcygGQ</name>
        <Point><coordinates>-77.0111065464,38.8901972248,0</coordinates></Point>
      </Placemark>
	

      <Placemark>
	<styleUrl>#ys</styleUrl>
        <name>uXaWh7G2P36n</name>
        <Point><coordinates>-77.010200586,38.8902929333,0</coordinates></Point>
      </Placemark>
	

      <Placemark>
	<styleUrl>#ys</styleUrl>
        <name>ucpLPMDKj5ib</name>
        <Point><coordinates>-77.0055911865,38.890507412,0</coordinates></Point>
      </Placemark>
	

      <Placemark>
	<styleUrl>#ys</styleUrl>
        <name>ud9MCJLoltET</name>
        <Point><coordinates>-77.0119951299,38.8920965994,0</coordinates></Point>
      </Placemark>
	

      <Placemark>
	<styleUrl>#ys</styleUrl>
        <name>udf46zVndpCP</name>
        <Point><coordinates>-77.0056060458,38.8904982186,0</coordinates></Point>
      </Placemark>
	

      <Placemark>
	<styleUrl>#ys</styleUrl>
        <name>v7WuuCUCUgtD</name>
        <Point><coordinates>-77.007407489,38.8896968305,0</coordinates></Point>
      </Placemark>
	

      <Placemark>
	<styleUrl>#ys</styleUrl>
        <name>x2GqSN2kAGY3</name>
        <Point><coordinates>-77.0101049849,38.8897914413,0</coordinates></Point>
      </Placemark>
	

      <Placemark>
	<styleUrl>#ys</styleUrl>
        <name>x5Wg4IGJGcYj</name>
        <Point><coordinates>-77.0056953038,38.8904035372,0</coordinates></Point>
      </Placemark>
	

      <Placemark>
	<styleUrl>#ys</styleUrl>
        <name>xDgvkenA1XD8</name>
        <Point><coordinates>-77.0145011752,38.8923929601,0</coordinates></Point>
      </Placemark>
	

      <Placemark>
	<styleUrl>#ys</styleUrl>
        <name>y0pBWrOfmauJ</name>
        <Point><coordinates>-77.0147935719,38.8911034761,0</coordinates></Point>
      </Placemark>
	

      <Placemark>
	<styleUrl>#ys</styleUrl>
        <name>yS8nnxnXxf74</name>
        <Point><coordinates>-77.006090315,38.8909043465,0</coordinates></Point>
      </Placemark>
	

      <Placemark>
	<styleUrl>#ys</styleUrl>
        <name>zQq9yoQY3r3t</name>
        <Point><coordinates>-77.0110967005,38.890094414,0</coordinates></Point>
      </Placemark>
	

      <Placemark>
	<styleUrl>#ys</styleUrl>
        <name>zhrtioZgOCoK</name>
        <Point><coordinates>-77.0066037726,38.8980933079,0</coordinates></Point>
      </Placemark>
	

      <Placemark>
	<styleUrl>#ys</styleUrl>
        <name>0GtXTCOlG6SC</name>
        <Point><coordinates>-77.0056942772,38.8903995203,0</coordinates></Point>
      </Placemark>
	

      <Placemark>
	<styleUrl>#ys</styleUrl>
        <name>0P57ekyl4BgA</name>
        <Point><coordinates>-77.0076090953,38.8859052608,0</coordinates></Point>
      </Placemark>
	

      <Placemark>
	<styleUrl>#ys</styleUrl>
        <name>0VjRwooevgzN</name>
        <Point><coordinates>-77.0105016149,38.890101744,0</coordinates></Point>
      </Placemark>
	

      <Placemark>
	<styleUrl>#ys</styleUrl>
        <name>1CQQO5UOk3Gr</name>
        <Point><coordinates>-77.0058071768,38.8903953342,0</coordinates></Point>
      </Placemark>
	

      <Placemark>
	<styleUrl>#ys</styleUrl>
        <name>1do91KWUgjXQ</name>
        <Point><coordinates>-77.0079996405,38.8898942731,0</coordinates></Point>
      </Placemark>
	

      <Placemark>
	<styleUrl>#ys</styleUrl>
        <name>1m4MSWTYl4GH</name>
        <Point><coordinates>-77.0111053537,38.891995889,0</coordinates></Point>
      </Placemark>
	

      <Placemark>
	<styleUrl>#ys</styleUrl>
        <name>2rC4KHODKIpv</name>
        <Point><coordinates>-77.0060051007,38.8912984579,0</coordinates></Point>
      </Placemark>
	

      <Placemark>
	<styleUrl>#ys</styleUrl>
        <name>3OcwRDARcx51</name>
        <Point><coordinates>-77.0055017951,38.8902960796,0</coordinates></Point>
      </Placemark>
	

      <Placemark>
	<styleUrl>#ys</styleUrl>
        <name>49158lDv9MVH</name>
        <Point><coordinates>-77.0102017051,38.8896981062,0</coordinates></Point>
      </Placemark>
	

      <Placemark>
	<styleUrl>#ys</styleUrl>
        <name>5C2jzuiGGF1H</name>
        <Point><coordinates>-77.0057911281,38.8913967173,0</coordinates></Point>
      </Placemark>
	

      <Placemark>
	<styleUrl>#ys</styleUrl>
        <name>5KP7PnNWK4Ue</name>
        <Point><coordinates>-77.0103946479,38.8895049701,0</coordinates></Point>
      </Placemark>
	

      <Placemark>
	<styleUrl>#ys</styleUrl>
        <name>5b1TElG2lXE6</name>
        <Point><coordinates>-77.0171922991,38.8848092037,0</coordinates></Point>
      </Placemark>
	

      <Placemark>
	<styleUrl>#ys</styleUrl>
        <name>63oCUyHLNz3D</name>
        <Point><coordinates>-77.0061971302,38.8910063465,0</coordinates></Point>
      </Placemark>
	

      <Placemark>
	<styleUrl>#ys</styleUrl>
        <name>6TYMFzQTLUTN</name>
        <Point><coordinates>-77.0104040457,38.8901911751,0</coordinates></Point>
      </Placemark>
	

      <Placemark>
	<styleUrl>#ys</styleUrl>
        <name>7h0ZDlfUOgbQ</name>
        <Point><coordinates>-77.0122926239,38.8900837381,0</coordinates></Point>
      </Placemark>
	

      <Placemark>
	<styleUrl>#ys</styleUrl>
        <name>7iB22C7LbbNy</name>
        <Point><coordinates>-77.0099057451,38.89000878,0</coordinates></Point>
      </Placemark>
	

	      <Placemark>
		<name>7pyX4y0Z2wiy</name>
		<styleUrl>#rs</styleUrl>
		<Point><coordinates>-77.0075038377,38.8901952782,0</coordinates></Point>
		<description>https://www.youtube.com/embed/7O0E__AL9W4</description>
	      </Placemark>
		

      <Placemark>
	<styleUrl>#ys</styleUrl>
        <name>9tLw1llnIA1s</name>
        <Point><coordinates>-77.0058978486,38.8907982618,0</coordinates></Point>
      </Placemark>
	

      <Placemark>
	<styleUrl>#ys</styleUrl>
        <name>BFebZCtfR5aF</name>
        <Point><coordinates>-77.0101972292,38.889804869,0</coordinates></Point>
      </Placemark>
	

	      <Placemark>
		<name>BG80gujuK5P6</name>
		<styleUrl>#rs</styleUrl>
		<Point><coordinates>-77.0107098921,38.8910004004,0</coordinates></Point>
		<description>https://www.youtube.com/embed/F1nkKocsAgc</description>
	      </Placemark>
		

      <Placemark>
	<styleUrl>#ys</styleUrl>
        <name>BbZw5Xms6z3W</name>
        <Point><coordinates>-77.0152946999,38.8874091107,0</coordinates></Point>
      </Placemark>
	

      <Placemark>
	<styleUrl>#ys</styleUrl>
        <name>BcmSWf4rUGth</name>
        <Point><coordinates>-77.005701768,38.8905012467,0</coordinates></Point>
      </Placemark>
	

	      <Placemark>
		<name>Bl351Ty32aMu</name>
		<styleUrl>#rs</styleUrl>
		<Point><coordinates>-77.0103028096,38.8902926474,0</coordinates></Point>
		<description>https://www.youtube.com/embed/qsJydCnaZn4</description>
	      </Placemark>
		

	      <Placemark>
		<name>BvNA5CiE47yt</name>
		<styleUrl>#rs</styleUrl>
		<Point><coordinates>-77.0098099145,38.8903002656,0</coordinates></Point>
		<description>https://www.youtube.com/embed/S1J5pQVNOTI</description>
	      </Placemark>
		

      <Placemark>
	<styleUrl>#ys</styleUrl>
        <name>C0RmfivrqS57</name>
        <Point><coordinates>-77.0056902803,38.8905027138,0</coordinates></Point>
      </Placemark>
	

      <Placemark>
	<styleUrl>#ys</styleUrl>
        <name>C8BAWHeYnt4p</name>
        <Point><coordinates>-77.0085016661,38.8921077824,0</coordinates></Point>
      </Placemark>
	

      <Placemark>
	<styleUrl>#ys</styleUrl>
        <name>CPeuy7lOW44J</name>
        <Point><coordinates>-77.0093988002,38.8903948535,0</coordinates></Point>
      </Placemark>
	

	      <Placemark>
		<name>CZgJF11YMHNh</name>
		<styleUrl>#rs</styleUrl>
		<Point><coordinates>-77.009405151,38.8907090906,0</coordinates></Point>
		<description>https://www.youtube.com/embed/Ujgw6qXQjcA</description>
	      </Placemark>
		

      <Placemark>
	<styleUrl>#ys</styleUrl>
        <name>D74suPzrQwTL</name>
        <Point><coordinates>-77.0095097358,38.8906943462,0</coordinates></Point>
      </Placemark>
	

      <Placemark>
	<styleUrl>#ys</styleUrl>
        <name>D9LwxWVeisiP</name>
        <Point><coordinates>-77.0113923532,38.8921968572,0</coordinates></Point>
      </Placemark>
	

      <Placemark>
	<styleUrl>#ys</styleUrl>
        <name>DB3opu4pgqYB</name>
        <Point><coordinates>-77.0138969239,38.8921937387,0</coordinates></Point>
      </Placemark>
	

      <Placemark>
	<styleUrl>#ys</styleUrl>
        <name>DMtXYvwqu6HV</name>
        <Point><coordinates>-77.0109943881,38.8903972273,0</coordinates></Point>
      </Placemark>
	

      <Placemark>
	<styleUrl>#ys</styleUrl>
        <name>Dv9Z6StAXa4p</name>
        <Point><coordinates>-77.0117940002,38.8921908454,0</coordinates></Point>
      </Placemark>
	

      <Placemark>
	<styleUrl>#ys</styleUrl>
        <name>EFAC5ZK44Dxu</name>
        <Point><coordinates>-77.0062051071,38.8911045076,0</coordinates></Point>
      </Placemark>
	

      <Placemark>
	<styleUrl>#ys</styleUrl>
        <name>EqQB4nOxW7TO</name>
        <Point><coordinates>-77.0114957338,38.8921024737,0</coordinates></Point>
      </Placemark>
	

      <Placemark>
	<styleUrl>#ys</styleUrl>
        <name>ExcnQLKiBztk</name>
        <Point><coordinates>-77.0110932587,38.8921019273,0</coordinates></Point>
      </Placemark>
	

      <Placemark>
	<styleUrl>#ys</styleUrl>
        <name>FrQl6xqto2uu</name>
        <Point><coordinates>-77.0105033367,38.8896911975,0</coordinates></Point>
      </Placemark>
	

      <Placemark>
	<styleUrl>#ys</styleUrl>
        <name>FsiTLLuzqPC5</name>
        <Point><coordinates>-77.0123983509,38.8905089,0</coordinates></Point>
      </Placemark>
	

      <Placemark>
	<styleUrl>#ys</styleUrl>
        <name>G4KEdqzhZQ1E</name>
        <Point><coordinates>-77.0144089954,38.8923938637,0</coordinates></Point>
      </Placemark>
	

      <Placemark>
	<styleUrl>#ys</styleUrl>
        <name>GK8jWqmW26L4</name>
        <Point><coordinates>-77.0066090856,38.8919940102,0</coordinates></Point>
      </Placemark>
	

      <Placemark>
	<styleUrl>#ys</styleUrl>
        <name>GKDXRqh3021Z</name>
        <Point><coordinates>-77.0100950592,38.8862055685,0</coordinates></Point>
      </Placemark>
	

      <Placemark>
	<styleUrl>#ys</styleUrl>
        <name>GST4Z2fKVy5k</name>
        <Point><coordinates>-77.0145957457,38.8924961002,0</coordinates></Point>
      </Placemark>
	

      <Placemark>
	<styleUrl>#ys</styleUrl>
        <name>GV3WX5nYIHZk</name>
        <Point><coordinates>-77.0141056136,38.8903039701,0</coordinates></Point>
      </Placemark>
	

      <Placemark>
	<styleUrl>#ys</styleUrl>
        <name>I7cdwwzIQKtU</name>
        <Point><coordinates>-77.0155928196,38.8916982094,0</coordinates></Point>
      </Placemark>
	

      <Placemark>
	<styleUrl>#ys</styleUrl>
        <name>ImUTSjGXdqUm</name>
        <Point><coordinates>-77.0084940235,38.8920972826,0</coordinates></Point>
      </Placemark>
	

      <Placemark>
	<styleUrl>#ys</styleUrl>
        <name>IyBgfs0ujH5c</name>
        <Point><coordinates>-77.0142031817,38.8923091502,0</coordinates></Point>
      </Placemark>
	

	      <Placemark>
		<name>JFDVk6DaG1KD</name>
		<styleUrl>#rs</styleUrl>
		<Point><coordinates>-77.0102929434,38.8901953812,0</coordinates></Point>
		<description>https://www.youtube.com/embed/r3Gs6GrdMj8</description>
	      </Placemark>
		

	      <Placemark>
		<name>JTr7X40BBrhP</name>
		<styleUrl>#rs</styleUrl>
		<Point><coordinates>-77.0104003431,38.8896919751,0</coordinates></Point>
		<description>https://www.youtube.com/embed/YmKCQKgG9NA</description>
	      </Placemark>
		

      <Placemark>
	<styleUrl>#ys</styleUrl>
        <name>K45yO8KnnbD9</name>
        <Point><coordinates>-77.0156030121,38.8916964923,0</coordinates></Point>
      </Placemark>
	

	      <Placemark>
		<name>KUWzwIjF44AC</name>
		<styleUrl>#rs</styleUrl>
		<Point><coordinates>-77.0107907408,38.88949817,0</coordinates></Point>
		<description>https://www.youtube.com/embed/tpRfMwEcMOk</description>
	      </Placemark>
		

      <Placemark>
	<styleUrl>#ys</styleUrl>
        <name>KYoi7C8a45cX</name>
        <Point><coordinates>-77.0102070131,38.889492679,0</coordinates></Point>
      </Placemark>
	

      <Placemark>
	<styleUrl>#ys</styleUrl>
        <name>KaWdtA4ulyQo</name>
        <Point><coordinates>-77.0104026862,38.8901018674,0</coordinates></Point>
      </Placemark>
	

      <Placemark>
	<styleUrl>#ys</styleUrl>
        <name>Kx7abeqjg38J</name>
        <Point><coordinates>-77.0057986555,38.8910912828,0</coordinates></Point>
      </Placemark>
	

      <Placemark>
	<styleUrl>#ys</styleUrl>
        <name>L581HkTRJuQ1</name>
        <Point><coordinates>-77.0124000785,38.8908919987,0</coordinates></Point>
      </Placemark>
	

	      <Placemark>
		<name>M4qAK9MhEpEF</name>
		<styleUrl>#rs</styleUrl>
		<Point><coordinates>-77.0097918096,38.8903099053,0</coordinates></Point>
		<description>https://www.youtube.com/embed/b1Hhz8B5rzk</description>
	      </Placemark>
		

      <Placemark>
	<styleUrl>#ys</styleUrl>
        <name>MDgbe8RblKgb</name>
        <Point><coordinates>-77.0114011222,38.8914822254,0</coordinates></Point>
      </Placemark>
	

      <Placemark>
	<styleUrl>#ys</styleUrl>
        <name>MF0TbEHFkmjB</name>
        <Point><coordinates>-77.0082083707,38.8913058025,0</coordinates></Point>
      </Placemark>
	

      <Placemark>
	<styleUrl>#ys</styleUrl>
        <name>MTkgkTwi8oy1</name>
        <Point><coordinates>-77.0115926674,38.890003471,0</coordinates></Point>
      </Placemark>
	

      <Placemark>
	<styleUrl>#ys</styleUrl>
        <name>Mb2H1ENme6PQ</name>
        <Point><coordinates>-77.0060903462,38.8901914501,0</coordinates></Point>
      </Placemark>
	

      <Placemark>
	<styleUrl>#ys</styleUrl>
        <name>N3iINAlup94Y</name>
        <Point><coordinates>-77.010891098,38.8902930924,0</coordinates></Point>
      </Placemark>
	

      <Placemark>
	<styleUrl>#ys</styleUrl>
        <name>OS7sRrK7hYQT</name>
        <Point><coordinates>-77.0092963436,38.8949940329,0</coordinates></Point>
      </Placemark>
	

      <Placemark>
	<styleUrl>#ys</styleUrl>
        <name>OYFkHMYFMLfZ</name>
        <Point><coordinates>-77.0080029499,38.8897973641,0</coordinates></Point>
      </Placemark>
	

      <Placemark>
	<styleUrl>#ys</styleUrl>
        <name>Oc9WgHNGpAhE</name>
        <Point><coordinates>-77.0101079947,38.8900915689,0</coordinates></Point>
      </Placemark>
	

      <Placemark>
	<styleUrl>#ys</styleUrl>
        <name>Os6HClNgMC2T</name>
        <Point><coordinates>-77.0112905483,38.8920997125,0</coordinates></Point>
      </Placemark>
	

      <Placemark>
	<styleUrl>#ys</styleUrl>
        <name>Pi5YzvNnxw2C</name>
        <Point><coordinates>-77.015695407,38.8906059236,0</coordinates></Point>
      </Placemark>
	

	      <Placemark>
		<name>QjlS1mXfbokU</name>
		<styleUrl>#rs</styleUrl>
		<Point><coordinates>-77.0103049683,38.8900906093,0</coordinates></Point>
		<description>https://www.youtube.com/embed/vc2Udgqzzt8</description>
	      </Placemark>
		

	      <Placemark>
		<name>REUyWy1tXI22</name>
		<styleUrl>#rs</styleUrl>
		<Point><coordinates>-77.0101907786,38.8915933491,0</coordinates></Point>
		<description>https://www.youtube.com/embed/mqnPktljNbo</description>
	      </Placemark>
		

      <Placemark>
	<styleUrl>#ys</styleUrl>
        <name>ROJ76Sv5TKNi</name>
        <Point><coordinates>-77.0054019524,38.8914085423,0</coordinates></Point>
      </Placemark>
	

      <Placemark>
	<styleUrl>#ys</styleUrl>
        <name>RqSWAT2AD63b</name>
        <Point><coordinates>-77.0104054496,38.8898981862,0</coordinates></Point>
      </Placemark>
	

      <Placemark>
	<styleUrl>#ys</styleUrl>
        <name>SHGsCPYkkOFj</name>
        <Point><coordinates>-77.0102061723,38.8897098632,0</coordinates></Point>
      </Placemark>
	

      <Placemark>
	<styleUrl>#ys</styleUrl>
        <name>SU62Dfr9BufA</name>
        <Point><coordinates>-77.0060954553,38.8909904798,0</coordinates></Point>
      </Placemark>
	

      <Placemark>
	<styleUrl>#ys</styleUrl>
        <name>SsBSWuD1I1aj</name>
        <Point><coordinates>-77.0113056583,38.892099368,0</coordinates></Point>
      </Placemark>
	

      <Placemark>
	<styleUrl>#ys</styleUrl>
        <name>Ty8H2A9NGGGD</name>
        <Point><coordinates>-77.0106921371,38.8901901066,0</coordinates></Point>
      </Placemark>
	

      <Placemark>
	<styleUrl>#ys</styleUrl>
        <name>UIqcvJE6vzT5</name>
        <Point><coordinates>-77.0103042457,38.8898917435,0</coordinates></Point>
      </Placemark>
	

      <Placemark>
	<styleUrl>#ys</styleUrl>
        <name>Uc6znqKs3w7S</name>
        <Point><coordinates>-77.0105932802,38.8901971093,0</coordinates></Point>
      </Placemark>
	

      <Placemark>
	<styleUrl>#ys</styleUrl>
        <name>V669AMQ87Yg1</name>
        <Point><coordinates>-77.0057935444,38.8904904522,0</coordinates></Point>
      </Placemark>
	

      <Placemark>
	<styleUrl>#ys</styleUrl>
        <name>VB04B4oHPLWw</name>
        <Point><coordinates>-77.009205922,38.8945099968,0</coordinates></Point>
      </Placemark>
	

      <Placemark>
	<styleUrl>#ys</styleUrl>
        <name>VcS16DYV1XyN</name>
        <Point><coordinates>-77.0060028888,38.8906947052,0</coordinates></Point>
      </Placemark>
	

      <Placemark>
	<styleUrl>#ys</styleUrl>
        <name>Vvx00yf3SVVM</name>
        <Point><coordinates>-77.011408036,38.8910902013,0</coordinates></Point>
      </Placemark>
	

      <Placemark>
	<styleUrl>#ys</styleUrl>
        <name>W56O8L5R8kju</name>
        <Point><coordinates>-77.0103064143,38.8904040372,0</coordinates></Point>
      </Placemark>
	

      <Placemark>
	<styleUrl>#ys</styleUrl>
        <name>W9d9UvLeBYFu</name>
        <Point><coordinates>-77.0100095423,38.8900947308,0</coordinates></Point>
      </Placemark>
	

      <Placemark>
	<styleUrl>#ys</styleUrl>
        <name>XN72wrdt4gqJ</name>
        <Point><coordinates>-77.0141922332,38.89070147,0</coordinates></Point>
      </Placemark>
	

      <Placemark>
	<styleUrl>#ys</styleUrl>
        <name>XXiXpwdNu00l</name>
        <Point><coordinates>-77.0145017477,38.8920980995,0</coordinates></Point>
      </Placemark>
	

      <Placemark>
	<styleUrl>#ys</styleUrl>
        <name>XaPuDYOtwtki</name>
        <Point><coordinates>-77.0121802672,38.8900083494,0</coordinates></Point>
      </Placemark>
	

      <Placemark>
	<styleUrl>#ys</styleUrl>
        <name>Xd7SIBDrYxRZ</name>
        <Point><coordinates>-77.0174970318,38.8899950749,0</coordinates></Point>
      </Placemark>
	

      <Placemark>
	<styleUrl>#ys</styleUrl>
        <name>XwpEGuj5jf55</name>
        <Point><coordinates>-77.0101974123,38.8921090488,0</coordinates></Point>
      </Placemark>
	

      <Placemark>
	<styleUrl>#ys</styleUrl>
        <name>Y36u7MZFL2M0</name>
        <Point><coordinates>-77.0035087815,38.8938022548,0</coordinates></Point>
      </Placemark>
	

      <Placemark>
	<styleUrl>#ys</styleUrl>
        <name>Y8JdSNtqgSo8</name>
        <Point><coordinates>-77.0100928947,38.8918902979,0</coordinates></Point>
      </Placemark>
	

      <Placemark>
	<styleUrl>#ys</styleUrl>
        <name>Z2oH60civ2tQ</name>
        <Point><coordinates>-77.016704571,38.8921065579,0</coordinates></Point>
      </Placemark>
	

      <Placemark>
	<styleUrl>#ys</styleUrl>
        <name>ZL8HCK76qzZr</name>
        <Point><coordinates>-77.0058051692,38.8909009298,0</coordinates></Point>
      </Placemark>
	

      <Placemark>
	<styleUrl>#ys</styleUrl>
        <name>ZUh5H7yo16yk</name>
        <Point><coordinates>-77.0092919328,38.8910971539,0</coordinates></Point>
      </Placemark>
	

      <Placemark>
	<styleUrl>#ys</styleUrl>
        <name>Zqil1XJmfmqQ</name>
        <Point><coordinates>-77.0061012183,38.8907971455,0</coordinates></Point>
      </Placemark>
	

      <Placemark>
	<styleUrl>#ys</styleUrl>
        <name>Zz3pcM8EscDj</name>
        <Point><coordinates>-77.0101935295,38.8920904156,0</coordinates></Point>
      </Placemark>
	

      <Placemark>
	<styleUrl>#ys</styleUrl>
        <name>aAet3LacMVHg</name>
        <Point><coordinates>-77.0178903521,38.8862058904,0</coordinates></Point>
      </Placemark>
	

      <Placemark>
	<styleUrl>#ys</styleUrl>
        <name>acw4ySh3Hn5x</name>
        <Point><coordinates>-77.0062035044,38.889883961,0</coordinates></Point>
      </Placemark>
	

      <Placemark>
	<styleUrl>#ys</styleUrl>
        <name>bMHWhr5qAMH9</name>
        <Point><coordinates>-77.0104011717,38.8900912118,0</coordinates></Point>
      </Placemark>
	

      <Placemark>
	<styleUrl>#ys</styleUrl>
        <name>bfTpTWh1sQpe</name>
        <Point><coordinates>-77.0101003112,38.8921038635,0</coordinates></Point>
      </Placemark>
	

      <Placemark>
	<styleUrl>#ys</styleUrl>
        <name>c136qrrpFdPb</name>
        <Point><coordinates>-77.0118910175,38.8934939093,0</coordinates></Point>
      </Placemark>
	

      <Placemark>
	<styleUrl>#ys</styleUrl>
        <name>cbo8oNJA3y3P</name>
        <Point><coordinates>-77.0063049162,38.8905092313,0</coordinates></Point>
      </Placemark>
	

      <Placemark>
	<styleUrl>#ys</styleUrl>
        <name>cl21yhY0WpGR</name>
        <Point><coordinates>-77.017095194,38.8891945177,0</coordinates></Point>
      </Placemark>
	

      <Placemark>
	<styleUrl>#ys</styleUrl>
        <name>cmzbWnPI5Jgs</name>
        <Point><coordinates>-77.0107909585,38.8900958907,0</coordinates></Point>
      </Placemark>
	

      <Placemark>
	<styleUrl>#ys</styleUrl>
        <name>cnj6DJtVllfK</name>
        <Point><coordinates>-77.0105954507,38.8899006214,0</coordinates></Point>
      </Placemark>
	

      <Placemark>
	<styleUrl>#ys</styleUrl>
        <name>cpg99eKn8k1O</name>
        <Point><coordinates>-77.0114092751,38.8920049374,0</coordinates></Point>
      </Placemark>
	

      <Placemark>
	<styleUrl>#ys</styleUrl>
        <name>dT3kSGZzzSzI</name>
        <Point><coordinates>-77.0105969417,38.8899022676,0</coordinates></Point>
      </Placemark>
	

      <Placemark>
	<styleUrl>#ys</styleUrl>
        <name>dsIj54OcP9IS</name>
        <Point><coordinates>-77.0105028852,38.8896932783,0</coordinates></Point>
      </Placemark>
	

      <Placemark>
	<styleUrl>#ys</styleUrl>
        <name>dwvgDZzQRsY3</name>
        <Point><coordinates>-77.0107988449,38.8896083777,0</coordinates></Point>
      </Placemark>
	

      <Placemark>
	<styleUrl>#ys</styleUrl>
        <name>eLSgf3w5r4PI</name>
        <Point><coordinates>-77.0103918621,38.8902098206,0</coordinates></Point>
      </Placemark>
	

      <Placemark>
	<styleUrl>#ys</styleUrl>
        <name>g085d2cG5gLV</name>
        <Point><coordinates>-77.0059944499,38.890397717,0</coordinates></Point>
      </Placemark>
	

      <Placemark>
	<styleUrl>#ys</styleUrl>
        <name>gPg3tvi1soCY</name>
        <Point><coordinates>-77.0128084683,38.8905945296,0</coordinates></Point>
      </Placemark>
	

      <Placemark>
	<styleUrl>#ys</styleUrl>
        <name>gwhsTiNFDNpQ</name>
        <Point><coordinates>-77.0116908944,38.8919982001,0</coordinates></Point>
      </Placemark>
	

      <Placemark>
	<styleUrl>#ys</styleUrl>
        <name>h2nH3xXOsrQ5</name>
        <Point><coordinates>-77.0102944376,38.8902020834,0</coordinates></Point>
      </Placemark>
	

      <Placemark>
	<styleUrl>#ys</styleUrl>
        <name>hmh5w1cou88U</name>
        <Point><coordinates>-77.0102934467,38.8900036855,0</coordinates></Point>
      </Placemark>
	

      <Placemark>
	<styleUrl>#ys</styleUrl>
        <name>i1Ir5Rk5cFDN</name>
        <Point><coordinates>-77.0152907984,38.890994818,0</coordinates></Point>
      </Placemark>
	

      <Placemark>
	<styleUrl>#ys</styleUrl>
        <name>i44n33HT20J8</name>
        <Point><coordinates>-77.0104983922,38.8895964481,0</coordinates></Point>
      </Placemark>
	

      <Placemark>
	<styleUrl>#ys</styleUrl>
        <name>ioCUUM1Est97</name>
        <Point><coordinates>-77.0077045198,38.8911015865,0</coordinates></Point>
      </Placemark>
	

      <Placemark>
	<styleUrl>#ys</styleUrl>
        <name>jkHvCmHQ8YzJ</name>
        <Point><coordinates>-77.0087918154,38.8911943479,0</coordinates></Point>
      </Placemark>
	

      <Placemark>
	<styleUrl>#ys</styleUrl>
        <name>kLwrPXp0qSvt</name>
        <Point><coordinates>-77.0143918364,38.8923929547,0</coordinates></Point>
      </Placemark>
	

      <Placemark>
	<styleUrl>#ys</styleUrl>
        <name>kRVyL8OooroC</name>
        <Point><coordinates>-77.0124908061,38.8920902176,0</coordinates></Point>
      </Placemark>
	

      <Placemark>
	<styleUrl>#ys</styleUrl>
        <name>kk2ZFW9PB5w3</name>
        <Point><coordinates>-77.0136059816,38.8914978048,0</coordinates></Point>
      </Placemark>
	

      <Placemark>
	<styleUrl>#ys</styleUrl>
        <name>lNPS8f8xdwOq</name>
        <Point><coordinates>-77.0061013021,38.8908026105,0</coordinates></Point>
      </Placemark>
	

      <Placemark>
	<styleUrl>#ys</styleUrl>
        <name>mK8d49lp3sbe</name>
        <Point><coordinates>-77.0147922802,38.8997057295,0</coordinates></Point>
      </Placemark>
	

      <Placemark>
	<styleUrl>#ys</styleUrl>
        <name>nCxt12LdrD9a</name>
        <Point><coordinates>-77.0115945432,38.8904037925,0</coordinates></Point>
      </Placemark>
	

      <Placemark>
	<styleUrl>#ys</styleUrl>
        <name>nc76VY2gAWt8</name>
        <Point><coordinates>-77.0104961934,38.8895932396,0</coordinates></Point>
      </Placemark>
	

      <Placemark>
	<styleUrl>#ys</styleUrl>
        <name>nuNa6aDdxRwi</name>
        <Point><coordinates>-77.0116066149,38.8899920215,0</coordinates></Point>
      </Placemark>
	

      <Placemark>
	<styleUrl>#ys</styleUrl>
        <name>nxTWnBZrzsqX</name>
        <Point><coordinates>-77.0059094022,38.8906912932,0</coordinates></Point>
      </Placemark>
	

      <Placemark>
	<styleUrl>#ys</styleUrl>
        <name>oe78jzaih2Fp</name>
        <Point><coordinates>-77.010300746,38.8895938137,0</coordinates></Point>
      </Placemark>
	

      <Placemark>
	<styleUrl>#ys</styleUrl>
        <name>p9e3zaq3sWtj</name>
        <Point><coordinates>-77.0124941487,38.8920992269,0</coordinates></Point>
      </Placemark>
	

      <Placemark>
	<styleUrl>#ys</styleUrl>
        <name>pO1kq2vS0Om8</name>
        <Point><coordinates>-77.0159948048,38.8916922804,0</coordinates></Point>
      </Placemark>
	

      <Placemark>
	<styleUrl>#ys</styleUrl>
        <name>qmgsbcLLvD0q</name>
        <Point><coordinates>-77.0062943941,38.8908075176,0</coordinates></Point>
      </Placemark>
	

      <Placemark>
	<styleUrl>#ys</styleUrl>
        <name>rKv1m3cDVn8K</name>
        <Point><coordinates>-77.0101904753,38.8901029143,0</coordinates></Point>
      </Placemark>
	

      <Placemark>
	<styleUrl>#ys</styleUrl>
        <name>rNO0gDpL5nKj</name>
        <Point><coordinates>-77.0094022974,38.8903049692,0</coordinates></Point>
      </Placemark>
	

      <Placemark>
	<styleUrl>#ys</styleUrl>
        <name>rUpF7pn0ukyE</name>
        <Point><coordinates>-77.0140907879,38.888706162,0</coordinates></Point>
      </Placemark>
	

      <Placemark>
	<styleUrl>#ys</styleUrl>
        <name>rchaTSx8uOWO</name>
        <Point><coordinates>-77.0037086431,38.8916080233,0</coordinates></Point>
      </Placemark>
	

      <Placemark>
	<styleUrl>#ys</styleUrl>
        <name>sICg1C38nHiG</name>
        <Point><coordinates>-77.0105951639,38.8902002898,0</coordinates></Point>
      </Placemark>
	

      <Placemark>
	<styleUrl>#ys</styleUrl>
        <name>sNSIvKezD8qU</name>
        <Point><coordinates>-77.0086940312,38.8901090278,0</coordinates></Point>
      </Placemark>
	

      <Placemark>
	<styleUrl>#ys</styleUrl>
        <name>tAc2BMgZlMhL</name>
        <Point><coordinates>-77.010100548,38.8898909542,0</coordinates></Point>
      </Placemark>
	

      <Placemark>
	<styleUrl>#ys</styleUrl>
        <name>tKRTTan8ezUn</name>
        <Point><coordinates>-77.0060009255,38.8913029892,0</coordinates></Point>
      </Placemark>
	

      <Placemark>
	<styleUrl>#ys</styleUrl>
        <name>tN18oEGcdGtX</name>
        <Point><coordinates>-77.0102090155,38.8896044801,0</coordinates></Point>
      </Placemark>
	

      <Placemark>
	<styleUrl>#ys</styleUrl>
        <name>tQKT1EAlKxN5</name>
        <Point><coordinates>-77.012092128,38.8913079233,0</coordinates></Point>
      </Placemark>
	

      <Placemark>
	<styleUrl>#ys</styleUrl>
        <name>tvG61rLACK0Q</name>
        <Point><coordinates>-77.0090902201,38.8817069976,0</coordinates></Point>
      </Placemark>
	

      <Placemark>
	<styleUrl>#ys</styleUrl>
        <name>tvruMD3iMgYE</name>
        <Point><coordinates>-77.0154972419,38.8885946172,0</coordinates></Point>
      </Placemark>
	

      <Placemark>
	<styleUrl>#ys</styleUrl>
        <name>u2QZduJ6bvqP</name>
        <Point><coordinates>-77.0060039099,38.8907057639,0</coordinates></Point>
      </Placemark>
	

	      <Placemark>
		<name>uWqE9aiqIa5b</name>
		<styleUrl>#rs</styleUrl>
		<Point><coordinates>-77.0098040822,38.8903060371,0</coordinates></Point>
		<description>https://www.youtube.com/embed/XcJBCBMOBNU</description>
	      </Placemark>
		

      <Placemark>
	<styleUrl>#ys</styleUrl>
        <name>ucphoWjc05a0</name>
        <Point><coordinates>-77.0082939916,38.8898045815,0</coordinates></Point>
      </Placemark>
	

      <Placemark>
	<styleUrl>#ys</styleUrl>
        <name>uubSmmMAYMQh</name>
        <Point><coordinates>-77.0137087963,38.892104987,0</coordinates></Point>
      </Placemark>
	

      <Placemark>
	<styleUrl>#ys</styleUrl>
        <name>uxifQpI6dByQ</name>
        <Point><coordinates>-77.0120963499,38.8885098201,0</coordinates></Point>
      </Placemark>
	

      <Placemark>
	<styleUrl>#ys</styleUrl>
        <name>vbFqFJqeBQWU</name>
        <Point><coordinates>-77.0139099427,38.8908913912,0</coordinates></Point>
      </Placemark>
	

      <Placemark>
	<styleUrl>#ys</styleUrl>
        <name>veY311KVKe0M</name>
        <Point><coordinates>-77.0077080082,38.8919982267,0</coordinates></Point>
      </Placemark>
	

      <Placemark>
	<styleUrl>#ys</styleUrl>
        <name>vhnaxdlC5PGJ</name>
        <Point><coordinates>-77.0102091068,38.892103607,0</coordinates></Point>
      </Placemark>
	

      <Placemark>
	<styleUrl>#ys</styleUrl>
        <name>vvyd0lbIrCC6</name>
        <Point><coordinates>-77.0112006077,38.8919901941,0</coordinates></Point>
      </Placemark>
	

      <Placemark>
	<styleUrl>#ys</styleUrl>
        <name>x8vmLFDDM1IM</name>
        <Point><coordinates>-77.0114919893,38.8888952376,0</coordinates></Point>
      </Placemark>
	

      <Placemark>
	<styleUrl>#ys</styleUrl>
        <name>xV4xXk6Dhrji</name>
        <Point><coordinates>-77.0061091085,38.8906914498,0</coordinates></Point>
      </Placemark>
	

      <Placemark>
	<styleUrl>#ys</styleUrl>
        <name>xpOu8rY8QfDS</name>
        <Point><coordinates>-77.0108098275,38.8903959635,0</coordinates></Point>
      </Placemark>
	

      <Placemark>
	<styleUrl>#ys</styleUrl>
        <name>xracYRRZyQ66</name>
        <Point><coordinates>-77.007192222,38.8910067308,0</coordinates></Point>
      </Placemark>
	

      <Placemark>
	<styleUrl>#ys</styleUrl>
        <name>yNE8dnxhV87u</name>
        <Point><coordinates>-77.0107023178,38.8893916812,0</coordinates></Point>
      </Placemark>
	

      <Placemark>
	<styleUrl>#ys</styleUrl>
        <name>yQ67Hra75Hkd</name>
        <Point><coordinates>-77.0107052016,38.8906088583,0</coordinates></Point>
      </Placemark>
	

      <Placemark>
	<styleUrl>#ys</styleUrl>
        <name>ygl1v11wTu3T</name>
        <Point><coordinates>-77.0059069009,38.889191988,0</coordinates></Point>
      </Placemark>
	

      <Placemark>
	<styleUrl>#ys</styleUrl>
        <name>z8wB14gXkR5V</name>
        <Point><coordinates>-77.0062993421,38.8906901377,0</coordinates></Point>
      </Placemark>
	

	      <Placemark>
		<name>zaCkdtc3RfzT</name>
		<styleUrl>#rs</styleUrl>
		<Point><coordinates>-77.0094025371,38.8906939376,0</coordinates></Point>
		<description>https://www.youtube.com/embed/aWmDMTcLzs4</description>
	      </Placemark>
		

      <Placemark>
	<styleUrl>#ys</styleUrl>
        <name>zw0huZx7vGy5</name>
        <Point><coordinates>-77.0113060251,38.8920015096,0</coordinates></Point>
      </Placemark>
	

      <Placemark>
	<styleUrl>#ys</styleUrl>
        <name>0WGrlpQvyvmk</name>
        <Point><coordinates>-77.0060071279,38.8913002838,0</coordinates></Point>
      </Placemark>
	

      <Placemark>
	<styleUrl>#ys</styleUrl>
        <name>0lmypbT9naSL</name>
        <Point><coordinates>-77.0100000509,38.8898911569,0</coordinates></Point>
      </Placemark>
	

      <Placemark>
	<styleUrl>#ys</styleUrl>
        <name>0m53Jfe0nCjK</name>
        <Point><coordinates>-77.0116070591,38.8900066985,0</coordinates></Point>
      </Placemark>
	

      <Placemark>
	<styleUrl>#ys</styleUrl>
        <name>1deIC6ZuyQhN</name>
        <Point><coordinates>-77.0058943483,38.8910967696,0</coordinates></Point>
      </Placemark>
	

      <Placemark>
	<styleUrl>#ys</styleUrl>
        <name>24fJYQldjZd2</name>
        <Point><coordinates>-77.0117978636,38.889392304,0</coordinates></Point>
      </Placemark>
	

      <Placemark>
	<styleUrl>#ys</styleUrl>
        <name>2PBoIh9W74cM</name>
        <Point><coordinates>-77.0097013167,38.8900087145,0</coordinates></Point>
      </Placemark>
	

      <Placemark>
	<styleUrl>#ys</styleUrl>
        <name>2db3VGVwiuDm</name>
        <Point><coordinates>-77.0057909235,38.8905916751,0</coordinates></Point>
      </Placemark>
	

      <Placemark>
	<styleUrl>#ys</styleUrl>
        <name>2jqQ59tUKzuA</name>
        <Point><coordinates>-77.0054081723,38.8911039976,0</coordinates></Point>
      </Placemark>
	

      <Placemark>
	<styleUrl>#ys</styleUrl>
        <name>2l1oWsRP4QAm</name>
        <Point><coordinates>-77.0060035335,38.8913090561,0</coordinates></Point>
      </Placemark>
	

      <Placemark>
	<styleUrl>#ys</styleUrl>
        <name>3GuxpBJHLuKf</name>
        <Point><coordinates>-77.0119978122,38.8901989796,0</coordinates></Point>
      </Placemark>
	

	      <Placemark>
		<name>3vGQyQIMf9H5</name>
		<styleUrl>#rs</styleUrl>
		<Point><coordinates>-77.0092077118,38.8899027003,0</coordinates></Point>
		<description>https://www.youtube.com/embed/snbsITpm9fM</description>
	      </Placemark>
		

      <Placemark>
	<styleUrl>#ys</styleUrl>
        <name>3xX9V5SrmugB</name>
        <Point><coordinates>-77.0103906565,38.8902045788,0</coordinates></Point>
      </Placemark>
	

      <Placemark>
	<styleUrl>#ys</styleUrl>
        <name>4FaPg7jce07p</name>
        <Point><coordinates>-77.00589689,38.8907034675,0</coordinates></Point>
      </Placemark>
	

      <Placemark>
	<styleUrl>#ys</styleUrl>
        <name>4GAV26EQ2cD6</name>
        <Point><coordinates>-77.0105934777,38.8902072008,0</coordinates></Point>
      </Placemark>
	

      <Placemark>
	<styleUrl>#ys</styleUrl>
        <name>4eebh9FMoU7W</name>
        <Point><coordinates>-77.0059094925,38.8904063747,0</coordinates></Point>
      </Placemark>
	

      <Placemark>
	<styleUrl>#ys</styleUrl>
        <name>5E16pZQTISLc</name>
        <Point><coordinates>-77.0105071038,38.8896924679,0</coordinates></Point>
      </Placemark>
	

	      <Placemark>
		<name>5kf2savkefB7</name>
		<styleUrl>#rs</styleUrl>
		<Point><coordinates>-77.0084902265,38.8897957078,0</coordinates></Point>
		<description>https://www.youtube.com/embed/Ib8aqDT0y2s</description>
	      </Placemark>
		

      <Placemark>
	<styleUrl>#ys</styleUrl>
        <name>69WACz6SPQg8</name>
        <Point><coordinates>-77.0101083938,38.8901023653,0</coordinates></Point>
      </Placemark>
	

      <Placemark>
	<styleUrl>#ys</styleUrl>
        <name>6DQIcVqy1cKO</name>
        <Point><coordinates>-77.0057993892,38.8906034752,0</coordinates></Point>
      </Placemark>
	

      <Placemark>
	<styleUrl>#ys</styleUrl>
        <name>7zqjUDoBOHwI</name>
        <Point><coordinates>-77.0120068761,38.8908043903,0</coordinates></Point>
      </Placemark>
	

      <Placemark>
	<styleUrl>#ys</styleUrl>
        <name>8154Nmd3bQq2</name>
        <Point><coordinates>-77.0102037627,38.8895015551,0</coordinates></Point>
      </Placemark>
	

      <Placemark>
	<styleUrl>#ys</styleUrl>
        <name>Am4DyxxGiXhD</name>
        <Point><coordinates>-77.0059945474,38.8912951198,0</coordinates></Point>
      </Placemark>
	

      <Placemark>
	<styleUrl>#ys</styleUrl>
        <name>CBjQ5bkcprs4</name>
        <Point><coordinates>-77.012499278,38.891601886,0</coordinates></Point>
      </Placemark>
	

      <Placemark>
	<styleUrl>#ys</styleUrl>
        <name>DEi4gsXBmrxn</name>
        <Point><coordinates>-77.0059900031,38.8906006073,0</coordinates></Point>
      </Placemark>
	

      <Placemark>
	<styleUrl>#ys</styleUrl>
        <name>EFv9XkrdDg8Q</name>
        <Point><coordinates>-77.0104078562,38.8900052895,0</coordinates></Point>
      </Placemark>
	

      <Placemark>
	<styleUrl>#ys</styleUrl>
        <name>ESCZgvGJkq4f</name>
        <Point><coordinates>-77.0087916359,38.8921054354,0</coordinates></Point>
      </Placemark>
	

      <Placemark>
	<styleUrl>#ys</styleUrl>
        <name>EqcEpqYdwfoe</name>
        <Point><coordinates>-77.0061972933,38.8911038157,0</coordinates></Point>
      </Placemark>
	

      <Placemark>
	<styleUrl>#ys</styleUrl>
        <name>Eum3srhq2fDc</name>
        <Point><coordinates>-77.0059026247,38.8904903938,0</coordinates></Point>
      </Placemark>
	

      <Placemark>
	<styleUrl>#ys</styleUrl>
        <name>FDVSkC7uAgSs</name>
        <Point><coordinates>-77.0111941213,38.8920088868,0</coordinates></Point>
      </Placemark>
	

      <Placemark>
	<styleUrl>#ys</styleUrl>
        <name>FEwehCHGBE3e</name>
        <Point><coordinates>-77.0083913629,38.8885955688,0</coordinates></Point>
      </Placemark>
	

      <Placemark>
	<styleUrl>#ys</styleUrl>
        <name>FxXTgCmKCYXv</name>
        <Point><coordinates>-77.0100058929,38.8901089935,0</coordinates></Point>
      </Placemark>
	

      <Placemark>
	<styleUrl>#ys</styleUrl>
        <name>G4rdUjsXjPju</name>
        <Point><coordinates>-77.010307549,38.8898060272,0</coordinates></Point>
      </Placemark>
	

      <Placemark>
	<styleUrl>#ys</styleUrl>
        <name>GM63J01VLMwC</name>
        <Point><coordinates>-77.0125085422,38.8910005121,0</coordinates></Point>
      </Placemark>
	

      <Placemark>
	<styleUrl>#ys</styleUrl>
        <name>GiNjE3Ej4x8N</name>
        <Point><coordinates>-77.005896974,38.8910929569,0</coordinates></Point>
      </Placemark>
	

      <Placemark>
	<styleUrl>#ys</styleUrl>
        <name>HAhSRum1PzEA</name>
        <Point><coordinates>-77.0060987928,38.8904018473,0</coordinates></Point>
      </Placemark>
	

      <Placemark>
	<styleUrl>#ys</styleUrl>
        <name>HITFOk1YWLly</name>
        <Point><coordinates>-77.0098950859,38.8902053928,0</coordinates></Point>
      </Placemark>
	

      <Placemark>
	<styleUrl>#ys</styleUrl>
        <name>HwW3HreERxxT</name>
        <Point><coordinates>-77.0115032715,38.8855931096,0</coordinates></Point>
      </Placemark>
	

      <Placemark>
	<styleUrl>#ys</styleUrl>
        <name>IN4prQyGU0ko</name>
        <Point><coordinates>-77.0153952221,38.8920075528,0</coordinates></Point>
      </Placemark>
	

      <Placemark>
	<styleUrl>#ys</styleUrl>
        <name>IgCQjNBok5f2</name>
        <Point><coordinates>-77.0086961261,38.8898984624,0</coordinates></Point>
      </Placemark>
	

      <Placemark>
	<styleUrl>#ys</styleUrl>
        <name>JCwHO2FnyFbU</name>
        <Point><coordinates>-77.0130089479,38.8911935871,0</coordinates></Point>
      </Placemark>
	

      <Placemark>
	<styleUrl>#ys</styleUrl>
        <name>JMiW9EoHfKhS</name>
        <Point><coordinates>-77.0109990452,38.890403064,0</coordinates></Point>
      </Placemark>
	

	      <Placemark>
		<name>KDH68TyHUiw5</name>
		<styleUrl>#rs</styleUrl>
		<Point><coordinates>-77.0099979003,38.8901039887,0</coordinates></Point>
		<description>https://www.youtube.com/embed/p14W-1JNHBM</description>
	      </Placemark>
		

      <Placemark>
	<styleUrl>#ys</styleUrl>
        <name>KLa541FJI9cC</name>
        <Point><coordinates>-77.0108961051,38.88950556,0</coordinates></Point>
      </Placemark>
	

	      <Placemark>
		<name>KMyt1obG9scS</name>
		<styleUrl>#rs</styleUrl>
		<Point><coordinates>-77.0093090413,38.8911000483,0</coordinates></Point>
		<description>https://www.youtube.com/embed/2sIskvQqTMY</description>
	      </Placemark>
		

      <Placemark>
	<styleUrl>#ys</styleUrl>
        <name>KptnQksS5Xr8</name>
        <Point><coordinates>-77.014194309,38.8900918759,0</coordinates></Point>
      </Placemark>
	

      <Placemark>
	<styleUrl>#ys</styleUrl>
        <name>LdowRJbSeiWb</name>
        <Point><coordinates>-77.0119944893,38.8906079281,0</coordinates></Point>
      </Placemark>
	

      <Placemark>
	<styleUrl>#ys</styleUrl>
        <name>M8YHLRH9D7gh</name>
        <Point><coordinates>-77.0098007828,38.889999812,0</coordinates></Point>
      </Placemark>
	

      <Placemark>
	<styleUrl>#ys</styleUrl>
        <name>MAEvYmItY5ij</name>
        <Point><coordinates>-77.0063040508,38.8905097308,0</coordinates></Point>
      </Placemark>
	

	      <Placemark>
		<name>MIS1v7mdAmPU</name>
		<styleUrl>#rs</styleUrl>
		<Point><coordinates>-77.010405581,38.8902044109,0</coordinates></Point>
		<description>https://www.youtube.com/embed/qBn1FeblPt4</description>
	      </Placemark>
		

      <Placemark>
	<styleUrl>#ys</styleUrl>
        <name>MOPeiWMzp6mh</name>
        <Point><coordinates>-77.0113000287,38.8903028344,0</coordinates></Point>
      </Placemark>
	

      <Placemark>
	<styleUrl>#ys</styleUrl>
        <name>MTOmhxigqpaF</name>
        <Point><coordinates>-77.0125966513,38.8876970679,0</coordinates></Point>
      </Placemark>
	

      <Placemark>
	<styleUrl>#ys</styleUrl>
        <name>Mudv1aC6qznL</name>
        <Point><coordinates>-77.0060929382,38.8909004431,0</coordinates></Point>
      </Placemark>
	

      <Placemark>
	<styleUrl>#ys</styleUrl>
        <name>NCHvDSEn4XFl</name>
        <Point><coordinates>-77.0103012304,38.8904094978,0</coordinates></Point>
      </Placemark>
	

      <Placemark>
	<styleUrl>#ys</styleUrl>
        <name>ORR6IT8uahea</name>
        <Point><coordinates>-77.006290708,38.8909085486,0</coordinates></Point>
      </Placemark>
	

      <Placemark>
	<styleUrl>#ys</styleUrl>
        <name>OpMIBqm9FLA5</name>
        <Point><coordinates>-77.005996472,38.890400316,0</coordinates></Point>
      </Placemark>
	

      <Placemark>
	<styleUrl>#ys</styleUrl>
        <name>PSfBHdR0uPsj</name>
        <Point><coordinates>-77.0123035299,38.8900970391,0</coordinates></Point>
      </Placemark>
	

      <Placemark>
	<styleUrl>#ys</styleUrl>
        <name>PSYtKJ42dVSl</name>
        <Point><coordinates>-77.0121037849,38.8927998325,0</coordinates></Point>
      </Placemark>
	

	      <Placemark>
		<name>PxBfJc8LQNOq</name>
		<styleUrl>#rs</styleUrl>
		<Point><coordinates>-77.0104922912,38.8902039333,0</coordinates></Point>
		<description>https://www.youtube.com/embed/eF4RYb8wZGg</description>
	      </Placemark>
		

      <Placemark>
	<styleUrl>#ys</styleUrl>
        <name>Q1I7pTmwRmxx</name>
        <Point><coordinates>-77.0113961436,38.8920944355,0</coordinates></Point>
      </Placemark>
	

      <Placemark>
	<styleUrl>#ys</styleUrl>
        <name>Q3311PzO9AUl</name>
        <Point><coordinates>-77.0063965669,38.890700328,0</coordinates></Point>
      </Placemark>
	

	      <Placemark>
		<name>Q7pXj92SdEwH</name>
		<styleUrl>#rs</styleUrl>
		<Point><coordinates>-77.0072094856,38.8909999606,0</coordinates></Point>
		<description>https://www.youtube.com/embed/XKNqb5hLJss</description>
	      </Placemark>
		

      <Placemark>
	<styleUrl>#ys</styleUrl>
        <name>QPxkZB8D9ErR</name>
        <Point><coordinates>-77.0057927711,38.8897953151,0</coordinates></Point>
      </Placemark>
	

      <Placemark>
	<styleUrl>#ys</styleUrl>
        <name>QgPc65a71aHC</name>
        <Point><coordinates>-77.0102994398,38.8901002127,0</coordinates></Point>
      </Placemark>
	

	      <Placemark>
		<name>Qo3hom0Qb1at</name>
		<styleUrl>#rs</styleUrl>
		<Point><coordinates>-77.0082912387,38.8906994038,0</coordinates></Point>
		<description>https://www.youtube.com/embed/A7LhS_7z8m8</description>
	      </Placemark>
		

      <Placemark>
	<styleUrl>#ys</styleUrl>
        <name>RQFewDGUcTUU</name>
        <Point><coordinates>-77.0173921735,38.8920939267,0</coordinates></Point>
      </Placemark>
	

      <Placemark>
	<styleUrl>#ys</styleUrl>
        <name>SWw4jOLxIMMN</name>
        <Point><coordinates>-77.0153016773,38.891000588,0</coordinates></Point>
      </Placemark>
	

      <Placemark>
	<styleUrl>#ys</styleUrl>
        <name>TOEhY6KrDYU3</name>
        <Point><coordinates>-77.0109942485,38.8898975635,0</coordinates></Point>
      </Placemark>
	

      <Placemark>
	<styleUrl>#ys</styleUrl>
        <name>TVvSlPzuWL7j</name>
        <Point><coordinates>-77.0112055031,38.8918931025,0</coordinates></Point>
      </Placemark>
	

      <Placemark>
	<styleUrl>#ys</styleUrl>
        <name>TXMlp22HyR7c</name>
        <Point><coordinates>-77.0115978745,38.8900995165,0</coordinates></Point>
      </Placemark>
	

      <Placemark>
	<styleUrl>#ys</styleUrl>
        <name>U4cg0Dfgtz12</name>
        <Point><coordinates>-77.010299952,38.8902025377,0</coordinates></Point>
      </Placemark>
	

      <Placemark>
	<styleUrl>#ys</styleUrl>
        <name>UWTPmtOeGOFe</name>
        <Point><coordinates>-77.0103908425,38.8921070423,0</coordinates></Point>
      </Placemark>
	

      <Placemark>
	<styleUrl>#ys</styleUrl>
        <name>Uz8egDxB46p8</name>
        <Point><coordinates>-77.0109017079,38.8898033455,0</coordinates></Point>
      </Placemark>
	

      <Placemark>
	<styleUrl>#ys</styleUrl>
        <name>VESN7EGGQffT</name>
        <Point><coordinates>-77.0087911448,38.8873075743,0</coordinates></Point>
      </Placemark>
	

      <Placemark>
	<styleUrl>#ys</styleUrl>
        <name>VRjxv5ZFUYCr</name>
        <Point><coordinates>-77.0142030913,38.8919950607,0</coordinates></Point>
      </Placemark>