<?xml version="1.0" encoding="UTF-8"?>
<kml xmlns="http://www.opengis.net/kml/2.2">
  <Document>
    <name>Parler</name>
    <open>1</open>





    <Style id="sd">
      <IconStyle>
<scale>0.2</scale>
        <Icon>
          <href>http://maps.google.com/mapfiles/kml/paddle/wht-blank-lv.png</href>
        </Icon>
      </IconStyle>
    </Style>




    <Style id="rs">
      <IconStyle>
<scale>0.5</scale>
        <Icon>
          <href>http://maps.google.com/mapfiles/kml/paddle/red-stars-lv.png</href>
        </Icon>
      </IconStyle>
      <BalloonStyle>
        <text>$[video]</text>
      </BalloonStyle>
    </Style>

    <Style id="bs">
      <IconStyle>
<scale>0.5</scale>
        <Icon>
          <href>http://maps.google.com/mapfiles/kml/paddle/blu-stars-lv.png</href>
        </Icon>
      </IconStyle>
      <BalloonStyle>
        <text>$[video]</text>
      </BalloonStyle>
    </Style>

    <Style id="gs">
      <IconStyle>
<scale>0.5</scale>
        <Icon>
          <href>http://maps.google.com/mapfiles/kml/paddle/grn-stars-lv.png</href>
        </Icon>
      </IconStyle>
      <BalloonStyle>
        <text>$[video]</text>
      </BalloonStyle>
    </Style>

    <Style id="ys">
      <IconStyle>
<scale>0.5</scale>
        <Icon>
          <href>http://maps.google.com/mapfiles/kml/paddle/ylw-stars-lv.png</href>
        </Icon>
      </IconStyle>
      <BalloonStyle>
        <text>$[video]</text>
      </BalloonStyle>
    </Style>



      <Placemark>
	<styleUrl>#sd</styleUrl>
        <name>01Dr0cCRKUBR</name>
        <Point><coordinates>-77.0241413786,38.8938767796,0</coordinates></Point>
      </Placemark>
	

      <Placemark>
	<styleUrl>#sd</styleUrl>
        <name>01y9xayI52wn</name>
        <Point><coordinates>-77.0309658594,38.8955293812,0</coordinates></Point>
      </Placemark>
	

	      <Placemark>
		<name>0ILtbKNKST48</name>
		<styleUrl>#rs</styleUrl>
		<Point><coordinates>-77.0101059706,38.889722906,0</coordinates></Point>
		<description>d2hxwnssq7ss7g.cloudfront.net/0ILtbKNKST48_cvt.mp4</description>
	      </Placemark>
		

      <Placemark>
	<styleUrl>#sd</styleUrl>
        <name>0QH0juP06hoN</name>
        <Point><coordinates>-77.0183430516,38.8923448477,0</coordinates></Point>
      </Placemark>
	

	      <Placemark>
		<name>0RkqluQmLWCt</name>
		<styleUrl>#ys</styleUrl>
		<Point><coordinates>-77.0082997416,38.8906466233,0</coordinates></Point>
		<description>https://www.youtube.com/embed/PMBv7xQgI-c</description>
	      </Placemark>
		

	      <Placemark>
		<name>0pHHD2IPnGI5</name>
		<styleUrl>#ys</styleUrl>
		<Point><coordinates>-77.0364230308,38.8921416858,0</coordinates></Point>
		<description>d2amdhggrspxsl.cloudfront.net/s3vids/0pHHD2IPnGI5.converted.mp4</description>
	      </Placemark>
		

      <Placemark>
	<styleUrl>#sd</styleUrl>
        <name>0wlmPQqxdTgo</name>
        <Point><coordinates>-77.0303314019,38.8960493999,0</coordinates></Point>
      </Placemark>
	

      <Placemark>
	<styleUrl>#sd</styleUrl>
        <name>1Ggg3agLBmcp</name>
        <Point><coordinates>-77.0299285513,38.8956410287,0</coordinates></Point>
      </Placemark>
	

	      <Placemark>
		<name>1Hkd1vmLib9z</name>
		<styleUrl>#bs</styleUrl>
		<Point><coordinates>-77.0354902826,38.8904679829,0</coordinates></Point>
		<description>d2amdhggrspxsl.cloudfront.net/s3vids/1Hkd1vmLib9z.converted.mp4</description>
	      </Placemark>
		

	      <Placemark>
		<name>1JUL6i1sevr5</name>
		<styleUrl>#gs</styleUrl>
		<Point><coordinates>-77.0056092997,38.8907179775,0</coordinates></Point>
		<description>d2amdhggrspxsl.cloudfront.net/s3vids/1JUL6i1sevr5.converted.mp4</description>
	      </Placemark>
		

      <Placemark>
	<styleUrl>#sd</styleUrl>
        <name>1bW4jtKW3e4h</name>
        <Point><coordinates>-77.0313754799,38.8957541149,0</coordinates></Point>
      </Placemark>
	

	      <Placemark>
		<name>25q0ZEYP63AS</name>
		<styleUrl>#bs</styleUrl>
		<Point><coordinates>-77.0155245448,38.8919427588,0</coordinates></Point>
		<description>d2amdhggrspxsl.cloudfront.net/s3vids/25q0ZEYP63AS.converted.mp4</description>
	      </Placemark>
		

	      <Placemark>
		<name>2LEhfa82rEBu</name>
		<styleUrl>#gs</styleUrl>
		<Point><coordinates>-77.0348032993,38.9035184156,0</coordinates></Point>
		<description>d2amdhggrspxsl.cloudfront.net/s3vids/2LEhfa82rEBu.converted.mp4</description>
	      </Placemark>
		

      <Placemark>
	<styleUrl>#sd</styleUrl>
        <name>2Sg01xRSxzB4</name>
        <Point><coordinates>-77.0287644154,38.8953422324,0</coordinates></Point>
      </Placemark>
	

	      <Placemark>
		<name>2Yk3nUusMZ5M</name>
		<styleUrl>#ys</styleUrl>
		<Point><coordinates>-77.0333308115,38.891568494,0</coordinates></Point>
		<description>d2amdhggrspxsl.cloudfront.net/s3vids/2Yk3nUusMZ5M.converted.mp4</description>
	      </Placemark>
		

	      <Placemark>
		<name>2fqpw5l9SeIl</name>
		<styleUrl>#bs</styleUrl>
		<Point><coordinates>-77.0367929967,38.8921296006,0</coordinates></Point>
		<description>d2amdhggrspxsl.cloudfront.net/s3vids/2fqpw5l9SeIl.converted.mp4</description>
	      </Placemark>
		

      <Placemark>
	<styleUrl>#sd</styleUrl>
        <name>2hQCSNaL2YEt</name>
        <Point><coordinates>-77.0273559405,38.8974262658,0</coordinates></Point>
      </Placemark>
	

	      <Placemark>
		<name>3BS8LuDCIhVK</name>
		<styleUrl>#bs</styleUrl>
		<Point><coordinates>-77.0364316052,38.9010345396,0</coordinates></Point>
		<description>d2amdhggrspxsl.cloudfront.net/s3vids/3BS8LuDCIhVK.converted.mp4</description>
	      </Placemark>
		

      <Placemark>
	<styleUrl>#sd</styleUrl>
        <name>3IY0g4zJnWpx</name>
        <Point><coordinates>-77.0280591958,38.8951420412,0</coordinates></Point>
      </Placemark>
	

	      <Placemark>
		<name>3YKQfXNj25bC</name>
		<styleUrl>#ys</styleUrl>
		<Point><coordinates>-77.0294581785,38.8951550401,0</coordinates></Point>
		<description>d2amdhggrspxsl.cloudfront.net/s3vids/3YKQfXNj25bC.converted.mp4</description>
	      </Placemark>
		

	      <Placemark>
		<name>3cQrZOxWACEC</name>
		<styleUrl>#rs</styleUrl>
		<Point><coordinates>-77.0322057354,38.8971910132,0</coordinates></Point>
		<description>d2amdhggrspxsl.cloudfront.net/s3vids/3cQrZOxWACEC.converted.mp4</description>
	      </Placemark>
		

      <Placemark>
	<styleUrl>#sd</styleUrl>
        <name>3temc8utA9Te</name>
        <Point><coordinates>-77.0270916043,38.8963332515,0</coordinates></Point>
      </Placemark>
	

      <Placemark>
	<styleUrl>#sd</styleUrl>
        <name>47bEpiPC9H4r</name>
        <Point><coordinates>-77.015359891,38.8909972369,0</coordinates></Point>
      </Placemark>
	

	      <Placemark>
		<name>4CgvVPwmomjo</name>
		<styleUrl>#rs</styleUrl>
		<Point><coordinates>-77.0103671982,38.8898535127,0</coordinates></Point>
		<description>d2hxwnssq7ss7g.cloudfront.net/4CgvVPwmomjo_cvt.mp4</description>
	      </Placemark>
		

      <Placemark>
	<styleUrl>#sd</styleUrl>
        <name>4qusbgWURPzb</name>
        <Point><coordinates>-77.0312055689,38.8959477616,0</coordinates></Point>
      </Placemark>
	

      <Placemark>
	<styleUrl>#sd</styleUrl>
        <name>4wEIjixAAI5n</name>
        <Point><coordinates>-77.0336203038,38.8968553094,0</coordinates></Point>
      </Placemark>
	

      <Placemark>
	<styleUrl>#sd</styleUrl>
        <name>4wpTpMUzTYNA</name>
        <Point><coordinates>-77.0322139455,38.8968678769,0</coordinates></Point>
      </Placemark>
	

	      <Placemark>
		<name>50XYMR09ys3v</name>
		<styleUrl>#ys</styleUrl>
		<Point><coordinates>-77.0098507432,38.8900250477,0</coordinates></Point>
		<description>d2amdhggrspxsl.cloudfront.net/s3vids/50XYMR09ys3v.converted.mp4</description>
	      </Placemark>
		

	      <Placemark>
		<name>52rqoXOfOPy5</name>
		<styleUrl>#ys</styleUrl>
		<Point><coordinates>-77.0362735875,38.8920826312,0</coordinates></Point>
		<description>d2hxwnssq7ss7g.cloudfront.net/52rqoXOfOPy5_cvt.mp4</description>
	      </Placemark>
		

	      <Placemark>
		<name>58lWitKHBAbq</name>
		<styleUrl>#ys</styleUrl>
		<Point><coordinates>-77.010477967,38.8897712829,0</coordinates></Point>
		<description>d2hxwnssq7ss7g.cloudfront.net/58lWitKHBAbq_cvt.mp4</description>
	      </Placemark>
		

      <Placemark>
	<styleUrl>#sd</styleUrl>
        <name>5KVDjj66vzRX</name>
        <Point><coordinates>-77.0058549038,38.8910786775,0</coordinates></Point>
      </Placemark>
	

	      <Placemark>
		<name>5Yf5w5tiLIDB</name>
		<styleUrl>#bs</styleUrl>
		<Point><coordinates>-77.0071364303,38.8900343021,0</coordinates></Point>
		<description>d2amdhggrspxsl.cloudfront.net/s3vids/5Yf5w5tiLIDB.converted.mp4</description>
	      </Placemark>
		

      <Placemark>
	<styleUrl>#sd</styleUrl>
        <name>5cR2GIapHuzT</name>
        <Point><coordinates>-77.0060378821,38.8906791866,0</coordinates></Point>
      </Placemark>
	

      <Placemark>
	<styleUrl>#sd</styleUrl>
        <name>5s1E8yhEKc16</name>
        <Point><coordinates>-77.0360695891,38.900654777,0</coordinates></Point>
      </Placemark>
	

	      <Placemark>
		<name>6FY6c0d8IMjz</name>
		<styleUrl>#gs</styleUrl>
		<Point><coordinates>-77.0103486432,38.8897623272,0</coordinates></Point>
		<description>https://www.youtube.com/embed/or1L4ZVNghI</description>
	      </Placemark>
		

	      <Placemark>
		<name>6JbG6I0FrJhn</name>
		<styleUrl>#ys</styleUrl>
		<Point><coordinates>-77.0102509588,38.8897407291,0</coordinates></Point>
		<description>https://www.youtube.com/embed/V617FSr4bOw</description>
	      </Placemark>
		

      <Placemark>
	<styleUrl>#sd</styleUrl>
        <name>6ZpzglX1wItx</name>
        <Point><coordinates>-77.0371475756,38.9030797629,0</coordinates></Point>
      </Placemark>
	

      <Placemark>
	<styleUrl>#sd</styleUrl>
        <name>6dznD64SiXCZ</name>
        <Point><coordinates>-77.0302723004,38.8956645732,0</coordinates></Point>
      </Placemark>
	

      <Placemark>
	<styleUrl>#sd</styleUrl>
        <name>6nGUY8RzfMkN</name>
        <Point><coordinates>-77.0321021944,38.8970127436,0</coordinates></Point>
      </Placemark>
	

      <Placemark>
	<styleUrl>#sd</styleUrl>
        <name>76xQPekYvGcu</name>
        <Point><coordinates>-77.0167332284,38.8921535402,0</coordinates></Point>
      </Placemark>
	

	      <Placemark>
		<name>7AoOD8iXDt37</name>
		<styleUrl>#ys</styleUrl>
		<Point><coordinates>-77.0238433477,38.9022549963,0</coordinates></Point>
		<description>d2hxwnssq7ss7g.cloudfront.net/7AoOD8iXDt37_cvt.mp4</description>
	      </Placemark>
		

      <Placemark>
	<styleUrl>#sd</styleUrl>
        <name>7ZClenrfeTiu</name>
        <Point><coordinates>-77.0351604958,38.9014291606,0</coordinates></Point>
      </Placemark>
	

      <Placemark>
	<styleUrl>#sd</styleUrl>
        <name>7e31ov6hVKFs</name>
        <Point><coordinates>-77.0357688883,38.9025006195,0</coordinates></Point>
      </Placemark>
	

      <Placemark>
	<styleUrl>#sd</styleUrl>
        <name>7lEOnbsWIuS9</name>
        <Point><coordinates>-77.0297269767,38.8958177604,0</coordinates></Point>
      </Placemark>
	

	      <Placemark>
		<name>7n9O8ZT8uXvQ</name>
		<styleUrl>#ys</styleUrl>
		<Point><coordinates>-77.0108521408,38.8898203493,0</coordinates></Point>
		<description>d2amdhggrspxsl.cloudfront.net/s3vids/7n9O8ZT8uXvQ.converted.mp4</description>
	      </Placemark>
		

      <Placemark>
	<styleUrl>#sd</styleUrl>
        <name>88OgcYEctaGP</name>
        <Point><coordinates>-77.0307072808,38.8961380447,0</coordinates></Point>
      </Placemark>
	

	      <Placemark>
		<name>8dLyJxfRn3cI</name>
		<styleUrl>#rs</styleUrl>
		<Point><coordinates>-77.010337346,38.8899342868,0</coordinates></Point>
		<description>d2hxwnssq7ss7g.cloudfront.net/8dLyJxfRn3cI_cvt.mp4</description>
	      </Placemark>
		

	      <Placemark>
		<name>8fGidwR3eLor</name>
		<styleUrl>#gs</styleUrl>
		<Point><coordinates>-77.0103704845,38.890629084,0</coordinates></Point>
		<description>d2hxwnssq7ss7g.cloudfront.net/8fGidwR3eLor_cvt.mp4</description>
	      </Placemark>
		

	      <Placemark>
		<name>8wZMDTyKo5Tm</name>
		<styleUrl>#gs</styleUrl>
		<Point><coordinates>-77.011000592,38.8904665241,0</coordinates></Point>
		<description>d2hxwnssq7ss7g.cloudfront.net/8wZMDTyKo5Tm_cvt.mp4</description>
	      </Placemark>
		

      <Placemark>
	<styleUrl>#sd</styleUrl>
        <name>8zy6GOcBAV5Y</name>
        <Point><coordinates>-77.0114348027,38.892262728,0</coordinates></Point>
      </Placemark>
	

      <Placemark>
	<styleUrl>#sd</styleUrl>
        <name>9Y3ejm8lLGFx</name>
        <Point><coordinates>-77.0271361546,38.8960449151,0</coordinates></Point>
      </Placemark>
	

	      <Placemark>
		<name>9quKY3UvWlvg</name>
		<styleUrl>#gs</styleUrl>
		<Point><coordinates>-77.0108454269,38.8895436166,0</coordinates></Point>
		<description>d2amdhggrspxsl.cloudfront.net/s3vids/9quKY3UvWlvg.converted.mp4</description>
	      </Placemark>
		

	      <Placemark>
		<name>A6nbSYGTQ2hW</name>
		<styleUrl>#ys</styleUrl>
		<Point><coordinates>-77.010490397,38.8900319735,0</coordinates></Point>
		<description>d2hxwnssq7ss7g.cloudfront.net/A6nbSYGTQ2hW_cvt.mp4</description>
	      </Placemark>
		

	      <Placemark>
		<name>ACa0xxSznKol</name>
		<styleUrl>#rs</styleUrl>
		<Point><coordinates>-77.0117765105,38.8894348066,0</coordinates></Point>
		<description>d2hxwnssq7ss7g.cloudfront.net/ACa0xxSznKol_cvt.mp4</description>
	      </Placemark>
		

	      <Placemark>
		<name>AdArLzDy1ObS</name>
		<styleUrl>#ys</styleUrl>
		<Point><coordinates>-77.0101333033,38.8896799477,0</coordinates></Point>
		<description>d2hxwnssq7ss7g.cloudfront.net/AdArLzDy1ObS_cvt.mp4</description>
	      </Placemark>
		

	      <Placemark>
		<name>AjjEGqOgsadm</name>
		<styleUrl>#bs</styleUrl>
		<Point><coordinates>-77.0276302021,38.8961093707,0</coordinates></Point>
		<description>d2amdhggrspxsl.cloudfront.net/s3vids/AjjEGqOgsadm.converted.mp4</description>
	      </Placemark>
		

	      <Placemark>
		<name>AqB0wJVAq4uE</name>
		<styleUrl>#rs</styleUrl>
		<Point><coordinates>-77.0310509921,38.8953240338,0</coordinates></Point>
		<description>d2amdhggrspxsl.cloudfront.net/s3vids/AqB0wJVAq4uE.converted.mp4</description>
	      </Placemark>
		

      <Placemark>
	<styleUrl>#sd</styleUrl>
        <name>B0FxCurP0DbS</name>
        <Point><coordinates>-77.0103059036,38.890131607,0</coordinates></Point>
      </Placemark>
	

	      <Placemark>
		<name>BKzCTrgUan1v</name>
		<styleUrl>#gs</styleUrl>
		<Point><coordinates>-77.0105210786,38.8897236761,0</coordinates></Point>
		<description>d2hxwnssq7ss7g.cloudfront.net/BKzCTrgUan1v_cvt.mp4</description>
	      </Placemark>
		

	      <Placemark>
		<name>BWRADURlezk0</name>
		<styleUrl>#gs</styleUrl>
		<Point><coordinates>-77.0263749604,38.9001343365,0</coordinates></Point>
		<description>d2amdhggrspxsl.cloudfront.net/s3vids/BWRADURlezk0.converted.mp4</description>
	      </Placemark>
		

	      <Placemark>
		<name>BsNFnOjBvcLC</name>
		<styleUrl>#bs</styleUrl>
		<Point><coordinates>-77.0353813424,38.8784126892,0</coordinates></Point>
		<description>d2amdhggrspxsl.cloudfront.net/s3vids/BsNFnOjBvcLC.converted.mp4</description>
	      </Placemark>
		

	      <Placemark>
		<name>C0iVFlxMD0xd</name>
		<styleUrl>#ys</styleUrl>
		<Point><coordinates>-77.0364778018,38.8918607287,0</coordinates></Point>
		<description>d2hxwnssq7ss7g.cloudfront.net/C0iVFlxMD0xd_cvt.mp4</description>
	      </Placemark>
		

	      <Placemark>
		<name>C5u7WZz0ibfe</name>
		<styleUrl>#bs</styleUrl>
		<Point><coordinates>-77.0102510785,38.8895699842,0</coordinates></Point>
		<description>d2amdhggrspxsl.cloudfront.net/s3vids/C5u7WZz0ibfe.converted.mp4</description>
	      </Placemark>
		

	      <Placemark>
		<name>CC0iavGPRx9W</name>
		<styleUrl>#gs</styleUrl>
		<Point><coordinates>-77.0361585621,38.8920115123,0</coordinates></Point>
		<description>d2hxwnssq7ss7g.cloudfront.net/CC0iavGPRx9W_cvt.mp4</description>
	      </Placemark>
		

	      <Placemark>
		<name>CE7LhOl22vJ9</name>
		<styleUrl>#rs</styleUrl>
		<Point><coordinates>-77.0076077005,38.8899824461,0</coordinates></Point>
		<description>https://www.youtube.com/embed/cO-Pp7mtT8Y</description>
	      </Placemark>
		

	      <Placemark>
		<name>CGd1rYJUBr2m</name>
		<styleUrl>#bs</styleUrl>
		<Point><coordinates>-77.0355615718,38.9025175364,0</coordinates></Point>
		<description>d2amdhggrspxsl.cloudfront.net/s3vids/CGd1rYJUBr2m.converted.mp4</description>
	      </Placemark>
		

	      <Placemark>
		<name>CNrWBNcfCr8w</name>
		<styleUrl>#bs</styleUrl>
		<Point><coordinates>-77.0102854931,38.8904376118,0</coordinates></Point>
		<description>d2hxwnssq7ss7g.cloudfront.net/CNrWBNcfCr8w_cvt.mp4</description>
	      </Placemark>
		

      <Placemark>
	<styleUrl>#sd</styleUrl>
        <name>CcnyVlqb33aV</name>
        <Point><coordinates>-77.0060346921,38.8910204653,0</coordinates></Point>
      </Placemark>
	

      <Placemark>
	<styleUrl>#sd</styleUrl>
        <name>CndSxof29TL1</name>
        <Point><coordinates>-77.0306955327,38.8960611579,0</coordinates></Point>
      </Placemark>
	

	      <Placemark>
		<name>CxuimH5Nb5do</name>
		<styleUrl>#rs</styleUrl>
		<Point><coordinates>-77.0371165146,38.8907950107,0</coordinates></Point>
		<description>d2amdhggrspxsl.cloudfront.net/s3vids/CxuimH5Nb5do.converted.mp4</description>
	      </Placemark>
		

      <Placemark>
	<styleUrl>#sd</styleUrl>
        <name>D15i7CKshZFG</name>
        <Point><coordinates>-77.0364167901,38.9002496356,0</coordinates></Point>
      </Placemark>
	

	      <Placemark>
		<name>D7H3UunIZa3z</name>
		<styleUrl>#bs</styleUrl>
		<Point><coordinates>-77.03193586,38.8961391535,0</coordinates></Point>
		<description>d2amdhggrspxsl.cloudfront.net/s3vids/D7H3UunIZa3z.converted.mp4</description>
	      </Placemark>
		

      <Placemark>
	<styleUrl>#sd</styleUrl>
        <name>DRd7Blx66gF1</name>
        <Point><coordinates>-77.0286609111,38.8951972793,0</coordinates></Point>
      </Placemark>
	

      <Placemark>
	<styleUrl>#sd</styleUrl>
        <name>DSL96z86eN5m</name>
        <Point><coordinates>-77.0114332028,38.8921036036,0</coordinates></Point>
      </Placemark>
	

	      <Placemark>
		<name>DVteqai4kE6y</name>
		<styleUrl>#rs</styleUrl>
		<Point><coordinates>-77.0305008207,38.8955582796,0</coordinates></Point>
		<description>d2amdhggrspxsl.cloudfront.net/s3vids/DVteqai4kE6y.converted.mp4</description>
	      </Placemark>
		

      <Placemark>
	<styleUrl>#sd</styleUrl>
        <name>Dkcn2D7Hnrcc</name>
        <Point><coordinates>-77.0298465853,38.8956034465,0</coordinates></Point>
      </Placemark>
	

	      <Placemark>
		<name>Dr91Sy9JPaqz</name>
		<styleUrl>#gs</styleUrl>
		<Point><coordinates>-77.011960083,38.8904530123,0</coordinates></Point>
		<description>d2amdhggrspxsl.cloudfront.net/s3vids/Dr91Sy9JPaqz.converted.mp4</description>
	      </Placemark>
		

      <Placemark>
	<styleUrl>#sd</styleUrl>
        <name>E0BVsEwYiXP8</name>
        <Point><coordinates>-77.0311915524,38.8960409591,0</coordinates></Point>
      </Placemark>
	

	      <Placemark>
		<name>E3qbcSs7VcC4</name>
		<styleUrl>#gs</styleUrl>
		<Point><coordinates>-77.0318549775,38.8956034251,0</coordinates></Point>
		<description>d2amdhggrspxsl.cloudfront.net/s3vids/E3qbcSs7VcC4.converted.mp4</description>
	      </Placemark>
		

	      <Placemark>
		<name>EAQMiCrIpltl</name>
		<styleUrl>#ys</styleUrl>
		<Point><coordinates>-77.036484957,38.8936507508,0</coordinates></Point>
		<description>d2hxwnssq7ss7g.cloudfront.net/EAQMiCrIpltl_cvt.mp4</description>
	      </Placemark>
		

	      <Placemark>
		<name>EFc5cWENHs5F</name>
		<styleUrl>#gs</styleUrl>
		<Point><coordinates>-77.0391316841,38.8996039243,0</coordinates></Point>
		<description>d2hxwnssq7ss7g.cloudfront.net/EFc5cWENHs5F_cvt.mp4</description>
	      </Placemark>
		

	      <Placemark>
		<name>EGrFrkDN88km</name>
		<styleUrl>#gs</styleUrl>
		<Point><coordinates>-77.0109113135,38.8899484028,0</coordinates></Point>
		<description>d2hxwnssq7ss7g.cloudfront.net/EGrFrkDN88km_cvt.mp4</description>
	      </Placemark>
		

      <Placemark>
	<styleUrl>#sd</styleUrl>
        <name>ER1nJCKjJCFA</name>
        <Point><coordinates>-77.0058424292,38.8903365476,0</coordinates></Point>
      </Placemark>
	

      <Placemark>
	<styleUrl>#sd</styleUrl>
        <name>ESumQUxBrK83</name>
        <Point><coordinates>-77.0276477404,38.8904347289,0</coordinates></Point>
      </Placemark>
	

      <Placemark>
	<styleUrl>#sd</styleUrl>
        <name>EsFY8ZpmxFYr</name>
        <Point><coordinates>-77.0058475079,38.8903683679,0</coordinates></Point>
      </Placemark>
	

      <Placemark>
	<styleUrl>#sd</styleUrl>
        <name>FQtEYfBZRdrm</name>
        <Point><coordinates>-77.0272498446,38.8962630883,0</coordinates></Point>
      </Placemark>
	

      <Placemark>
	<styleUrl>#sd</styleUrl>
        <name>FYlBctOhdY6q</name>
        <Point><coordinates>-77.0056430819,38.8905731239,0</coordinates></Point>
      </Placemark>
	

      <Placemark>
	<styleUrl>#sd</styleUrl>
        <name>Fb6N8jXHDAFg</name>
        <Point><coordinates>-77.015673278,38.8905593095,0</coordinates></Point>
      </Placemark>
	

      <Placemark>
	<styleUrl>#sd</styleUrl>
        <name>GC102pwJuxlt</name>
        <Point><coordinates>-77.0167207756,38.9110889156,0</coordinates></Point>
      </Placemark>
	

	      <Placemark>
		<name>GQSiMdVA83Bt</name>
		<styleUrl>#gs</styleUrl>
		<Point><coordinates>-77.014549119,38.8921501896,0</coordinates></Point>
		<description>d2amdhggrspxsl.cloudfront.net/s3vids/GQSiMdVA83Bt.converted.mp4</description>
	      </Placemark>
		

	      <Placemark>
		<name>GSMrQj3U0qEO</name>
		<styleUrl>#rs</styleUrl>
		<Point><coordinates>-77.0314390324,38.895780785,0</coordinates></Point>
		<description>d2amdhggrspxsl.cloudfront.net/s3vids/GSMrQj3U0qEO.converted.mp4</description>
	      </Placemark>
		

      <Placemark>
	<styleUrl>#sd</styleUrl>
        <name>GVqtVyFGYKxE</name>
        <Point><coordinates>-77.0090765105,38.8955656655,0</coordinates></Point>
      </Placemark>
	

      <Placemark>
	<styleUrl>#sd</styleUrl>
        <name>GjCNlWdg723v</name>
        <Point><coordinates>-77.0199691428,38.9285505273,0</coordinates></Point>
      </Placemark>
	

      <Placemark>
	<styleUrl>#sd</styleUrl>
        <name>GpbZAAgMuo6a</name>
        <Point><coordinates>-77.0303353908,38.89626842,0</coordinates></Point>
      </Placemark>
	

	      <Placemark>
		<name>GvSfsVukvld7</name>
		<styleUrl>#rs</styleUrl>
		<Point><coordinates>-77.0130768222,38.8908534414,0</coordinates></Point>
		<description>d2amdhggrspxsl.cloudfront.net/s3vids/GvSfsVukvld7.converted.mp4</description>
	      </Placemark>
		

      <Placemark>
	<styleUrl>#sd</styleUrl>
        <name>H6EqfmJVPSDC</name>
        <Point><coordinates>-77.0124205196,38.8921458888,0</coordinates></Point>
      </Placemark>
	

	      <Placemark>
		<name>HErrRC01EIav</name>
		<styleUrl>#ys</styleUrl>
		<Point><coordinates>-77.0093812416,38.8903466176,0</coordinates></Point>
		<description>d2hxwnssq7ss7g.cloudfront.net/HErrRC01EIav_cvt.mp4</description>
	      </Placemark>
		

	      <Placemark>
		<name>HS34fpbzqg2b</name>
		<styleUrl>#bs</styleUrl>
		<Point><coordinates>-77.007885455,38.8907003771,0</coordinates></Point>
		<description>https://www.youtube.com/embed/C-ZPAGrhw6I</description>
	      </Placemark>
		

	      <Placemark>
		<name>HX07G51QKPEx</name>
		<styleUrl>#rs</styleUrl>
		<Point><coordinates>-77.010309175,38.8900683101,0</coordinates></Point>
		<description>d2hxwnssq7ss7g.cloudfront.net/HX07G51QKPEx_cvt.mp4</description>
	      </Placemark>
		

      <Placemark>
	<styleUrl>#sd</styleUrl>
        <name>HZ2kN1ny5lyY</name>
        <Point><coordinates>-77.0303375071,38.8961773982,0</coordinates></Point>
      </Placemark>
	

      <Placemark>
	<styleUrl>#sd</styleUrl>
        <name>I7XN5Ojzw20d</name>
        <Point><coordinates>-77.0059976044,38.8903663299,0</coordinates></Point>
      </Placemark>
	

	      <Placemark>
		<name>IKw27C8zdUHH</name>
		<styleUrl>#rs</styleUrl>
		<Point><coordinates>-77.0319273359,38.8964250401,0</coordinates></Point>
		<description>d2amdhggrspxsl.cloudfront.net/s3vids/IKw27C8zdUHH.converted.mp4</description>
	      </Placemark>
		

	      <Placemark>
		<name>IOqrjPvbQx6s</name>
		<styleUrl>#rs</styleUrl>
		<Point><coordinates>-77.010335646,38.8896807956,0</coordinates></Point>
		<description>https://www.youtube.com/embed/o2titsRYSkg</description>
	      </Placemark>
		

      <Placemark>
	<styleUrl>#sd</styleUrl>
        <name>Iy08Wc2XFNqJ</name>
        <Point><coordinates>-77.014630812,38.8919889455,0</coordinates></Point>
      </Placemark>
	

	      <Placemark>
		<name>J9U6khb56IEE</name>
		<styleUrl>#bs</styleUrl>
		<Point><coordinates>-77.0334653381,38.8968450931,0</coordinates></Point>
		<description>d2amdhggrspxsl.cloudfront.net/s3vids/J9U6khb56IEE.converted.mp4</description>
	      </Placemark>
		

      <Placemark>
	<styleUrl>#sd</styleUrl>
        <name>JAzgtaTITPPG</name>
        <Point><coordinates>-77.0365003402,38.8903517803,0</coordinates></Point>
      </Placemark>
	

      <Placemark>
	<styleUrl>#sd</styleUrl>
        <name>JXTVMH2oGvMH</name>
        <Point><coordinates>-77.0296767836,38.8952490835,0</coordinates></Point>
      </Placemark>
	

	      <Placemark>
		<name>JtwM30g8Rg1Q</name>
		<styleUrl>#rs</styleUrl>
		<Point><coordinates>-77.029836777,38.8918231995,0</coordinates></Point>
		<description>d2amdhggrspxsl.cloudfront.net/s3vids/JtwM30g8Rg1Q.converted.mp4</description>
	      </Placemark>
		

	      <Placemark>
		<name>KBi2LV5ZkDfH</name>
		<styleUrl>#ys</styleUrl>
		<Point><coordinates>-77.0173226937,38.8920706315,0</coordinates></Point>
		<description>d2amdhggrspxsl.cloudfront.net/s3vids/KBi2LV5ZkDfH.converted.mp4</description>
	      </Placemark>
		

      <Placemark>
	<styleUrl>#sd</styleUrl>
        <name>KGBOHrlAZQoG</name>
        <Point><coordinates>-77.0320570316,38.8965237754,0</coordinates></Point>
      </Placemark>
	

      <Placemark>
	<styleUrl>#sd</styleUrl>
        <name>KR2Z4glZQhgB</name>
        <Point><coordinates>-77.0307237307,38.8960728618,0</coordinates></Point>
      </Placemark>
	

      <Placemark>
	<styleUrl>#sd</styleUrl>
        <name>KUT3TiOVYh7E</name>
        <Point><coordinates>-77.005978714,38.8901930512,0</coordinates></Point>
      </Placemark>
	

	      <Placemark>
		<name>Kmm034ViQJyl</name>
		<styleUrl>#rs</styleUrl>
		<Point><coordinates>-77.0106344494,38.8897241086,0</coordinates></Point>
		<description>https://www.youtube.com/embed/HYvH2XiPuLU</description>
	      </Placemark>
		

      <Placemark>
	<styleUrl>#sd</styleUrl>
        <name>Ko62XBUyaYLE</name>
        <Point><coordinates>-77.0271294127,38.8946571705,0</coordinates></Point>
      </Placemark>
	

	      <Placemark>
		<name>L5LAErfLatjG</name>
		<styleUrl>#bs</styleUrl>
		<Point><coordinates>-77.0474211286,38.896422506,0</coordinates></Point>
		<description>d2amdhggrspxsl.cloudfront.net/s3vids/L5LAErfLatjG.converted.mp4</description>
	      </Placemark>
		

      <Placemark>
	<styleUrl>#sd</styleUrl>
        <name>LPbCzY5Zbb0P</name>
        <Point><coordinates>-77.0059142216,38.8907447441,0</coordinates></Point>
      </Placemark>
	

      <Placemark>
	<styleUrl>#sd</styleUrl>
        <name>LY04YlwJ3JQ1</name>
        <Point><coordinates>-77.0182350881,38.8786559944,0</coordinates></Point>
      </Placemark>
	

      <Placemark>
	<styleUrl>#sd</styleUrl>
        <name>LcorKZMPtimA</name>
        <Point><coordinates>-77.0310936592,38.8955921274,0</coordinates></Point>
      </Placemark>
	

	      <Placemark>
		<name>LdURLP869BXI</name>
		<styleUrl>#gs</styleUrl>
		<Point><coordinates>-77.0370496379,38.8915225432,0</coordinates></Point>
		<description>d2amdhggrspxsl.cloudfront.net/s3vids/LdURLP869BXI.converted.mp4</description>
	      </Placemark>
		

	      <Placemark>
		<name>LhPiDTMhUSGL</name>
		<styleUrl>#gs</styleUrl>
		<Point><coordinates>-77.0100404409,38.8900598765,0</coordinates></Point>
		<description>https://www.youtube.com/embed/UfIlXpLsY1g</description>
	      </Placemark>
		

      <Placemark>
	<styleUrl>#sd</styleUrl>
        <name>LoAokLIYkaGO</name>
        <Point><coordinates>-77.0314769855,38.8960100915,0</coordinates></Point>
      </Placemark>
	

      <Placemark>
	<styleUrl>#sd</styleUrl>
        <name>M2LYglVwxNYk</name>
        <Point><coordinates>-77.0143082745,38.892118681,0</coordinates></Point>
      </Placemark>
	

      <Placemark>
	<styleUrl>#sd</styleUrl>
        <name>M5c4K0gVzZ1C</name>
        <Point><coordinates>-77.0312050332,38.8958745269,0</coordinates></Point>
      </Placemark>
	

	      <Placemark>
		<name>MDACiOMgge1Z</name>
		<styleUrl>#ys</styleUrl>
		<Point><coordinates>-77.0352631678,38.8909836383,0</coordinates></Point>
		<description>d2hxwnssq7ss7g.cloudfront.net/MDACiOMgge1Z_cvt.mp4</description>
	      </Placemark>
		

      <Placemark>
	<styleUrl>#sd</styleUrl>
        <name>MYo7OWJJq6qo</name>
        <Point><coordinates>-77.0297381859,38.8952289585,0</coordinates></Point>
      </Placemark>
	

	      <Placemark>
		<name>Mij3YHwD8t0t</name>
		<styleUrl>#rs</styleUrl>
		<Point><coordinates>-77.0062255359,38.8918646318,0</coordinates></Point>
		<description>d2amdhggrspxsl.cloudfront.net/s3vids/Mij3YHwD8t0t.converted.mp4</description>
	      </Placemark>
		

	      <Placemark>
		<name>Mlpi0bAEnCXG</name>
		<styleUrl>#ys</styleUrl>
		<Point><coordinates>-77.028474626,38.8949945763,0</coordinates></Point>
		<description>d2amdhggrspxsl.cloudfront.net/s3vids/Mlpi0bAEnCXG.converted.mp4</description>
	      </Placemark>
		

      <Placemark>
	<styleUrl>#sd</styleUrl>
        <name>Mth2z4B2v3ko</name>
        <Point><coordinates>-77.0060464306,38.8919116549,0</coordinates></Point>
      </Placemark>
	

	      <Placemark>
		<name>NHruwijUAU0M</name>
		<styleUrl>#bs</styleUrl>
		<Point><coordinates>-77.0117800033,38.8933758391,0</coordinates></Point>
		<description>d2amdhggrspxsl.cloudfront.net/s3vids/NHruwijUAU0M.converted.mp4</description>
	      </Placemark>
		

	      <Placemark>
		<name>NU3SacLstfnA</name>
		<styleUrl>#ys</styleUrl>
		<Point><coordinates>-77.03119907,38.8959707044,0</coordinates></Point>
		<description>d2amdhggrspxsl.cloudfront.net/s3vids/NU3SacLstfnA.converted.mp4</description>
	      </Placemark>
		

	      <Placemark>
		<name>Nw6JBnPVh0Y8</name>
		<styleUrl>#gs</styleUrl>
		<Point><coordinates>-77.031519807,38.8961460186,0</coordinates></Point>
		<description>d2amdhggrspxsl.cloudfront.net/s3vids/Nw6JBnPVh0Y8.converted.mp4</description>
	      </Placemark>
		

      <Placemark>
	<styleUrl>#sd</styleUrl>
        <name>O04HrXvFcfvg</name>
        <Point><coordinates>-77.0320500065,38.8962493154,0</coordinates></Point>
      </Placemark>
	

	      <Placemark>
		<name>O4kgdyn627q4</name>
		<styleUrl>#bs</styleUrl>
		<Point><coordinates>-77.0352611314,38.9078686246,0</coordinates></Point>
		<description>d2hxwnssq7ss7g.cloudfront.net/O4kgdyn627q4_cvt.mp4</description>
	      </Placemark>
		

	      <Placemark>
		<name>O6HbowV8150S</name>
		<styleUrl>#rs</styleUrl>
		<Point><coordinates>-76.9763471973,38.8940466121,0</coordinates></Point>
		<description>d2amdhggrspxsl.cloudfront.net/s3vids/O6HbowV8150S.converted.mp4</description>
	      </Placemark>
		

      <Placemark>
	<styleUrl>#sd</styleUrl>
        <name>O6xn6zZGs7vk</name>
        <Point><coordinates>-77.0314638999,38.8958594264,0</coordinates></Point>
      </Placemark>
	

      <Placemark>
	<styleUrl>#sd</styleUrl>
        <name>OGe9J0PUzHy6</name>
        <Point><coordinates>-77.0414206241,38.9056525064,0</coordinates></Point>
      </Placemark>
	

	      <Placemark>
		<name>OcH04ImVxWii</name>
		<styleUrl>#bs</styleUrl>
		<Point><coordinates>-77.0092457542,38.8903445616,0</coordinates></Point>
		<description>https://www.youtube.com/embed/t421erWVC3c</description>
	      </Placemark>
		

      <Placemark>
	<styleUrl>#sd</styleUrl>
        <name>Oql7iaQVgoNl</name>
        <Point><coordinates>-77.0177054436,38.8927564972,0</coordinates></Point>
      </Placemark>
	

	      <Placemark>
		<name>PGtnEBqQiclR</name>
		<styleUrl>#gs</styleUrl>
		<Point><coordinates>-77.0283162278,38.8961629117,0</coordinates></Point>
		<description>d2amdhggrspxsl.cloudfront.net/s3vids/PGtnEBqQiclR.converted.mp4</description>
	      </Placemark>
		

	      <Placemark>
		<name>PI503wb3YSoh</name>
		<styleUrl>#gs</styleUrl>
		<Point><coordinates>-77.0130163184,38.8898315714,0</coordinates></Point>
		<description>https://www.youtube.com/embed/RZX_xDc_UvA</description>
	      </Placemark>
		

	      <Placemark>
		<name>PS5QzMyOoJ1Y</name>
		<styleUrl>#rs</styleUrl>
		<Point><coordinates>-77.0370627237,38.8905858623,0</coordinates></Point>
		<description>d2amdhggrspxsl.cloudfront.net/s3vids/PS5QzMyOoJ1Y.converted.mp4</description>
	      </Placemark>
		

	      <Placemark>
		<name>Pf0Yj1jpQsem</name>
		<styleUrl>#ys</styleUrl>
		<Point><coordinates>-77.0034591089,38.8937754696,0</coordinates></Point>
		<description>d2hxwnssq7ss7g.cloudfront.net/Pf0Yj1jpQsem_cvt.mp4</description>
	      </Placemark>
		

      <Placemark>
	<styleUrl>#sd</styleUrl>
        <name>Pq1KmjpsWZGC</name>
        <Point><coordinates>-77.0310227389,38.8957334766,0</coordinates></Point>
      </Placemark>
	

      <Placemark>
	<styleUrl>#sd</styleUrl>
        <name>Q5fmkLNrexWY</name>
        <Point><coordinates>-77.0115502484,38.8919786676,0</coordinates></Point>
      </Placemark>
	

      <Placemark>
	<styleUrl>#sd</styleUrl>
        <name>QXAdAxKxHc98</name>
        <Point><coordinates>-77.0200068639,38.9285467076,0</coordinates></Point>
      </Placemark>
	

      <Placemark>
	<styleUrl>#sd</styleUrl>
        <name>QY27s0IkwDgP</name>
        <Point><coordinates>-77.028435746,38.8961820431,0</coordinates></Point>
      </Placemark>
	

	      <Placemark>
		<name>QcUzbo8hdJY6</name>
		<styleUrl>#bs</styleUrl>
		<Point><coordinates>-77.0365664092,38.8938677249,0</coordinates></Point>
		<description>d2hxwnssq7ss7g.cloudfront.net/QcUzbo8hdJY6_cvt.mp4</description>
	      </Placemark>
		

      <Placemark>
	<styleUrl>#sd</styleUrl>
        <name>QjPGrv4MH9oj</name>
        <Point><coordinates>-77.0296481725,38.8954261183,0</coordinates></Point>
      </Placemark>
	

	      <Placemark>
		<name>QjvAsHJ5o501</name>
		<styleUrl>#rs</styleUrl>
		<Point><coordinates>-77.0082289298,38.8912209637,0</coordinates></Point>
		<description>https://www.youtube.com/embed/APiC5kzM_yg</description>
	      </Placemark>
		

	      <Placemark>
		<name>QqszTRw5jJOV</name>
		<styleUrl>#ys</styleUrl>
		<Point><coordinates>-77.0276614148,38.8961787002,0</coordinates></Point>
		<description>d2amdhggrspxsl.cloudfront.net/s3vids/QqszTRw5jJOV.converted.mp4</description>
	      </Placemark>
		

      <Placemark>
	<styleUrl>#sd</styleUrl>
        <name>QsFIMA5Zowme</name>
        <Point><coordinates>-77.0136653019,38.892172419,0</coordinates></Point>
      </Placemark>
	

      <Placemark>
	<styleUrl>#sd</styleUrl>
        <name>QzwzrD9c796I</name>
        <Point><coordinates>-77.0312595636,38.8960512962,0</coordinates></Point>
      </Placemark>
	

      <Placemark>
	<styleUrl>#sd</styleUrl>
        <name>R75EdEVjKq15</name>
        <Point><coordinates>-77.0405281486,38.9037912994,0</coordinates></Point>
      </Placemark>
	

      <Placemark>
	<styleUrl>#sd</styleUrl>
        <name>RPmQMhhr7IVG</name>
        <Point><coordinates>-77.0057841728,38.8910659417,0</coordinates></Point>
      </Placemark>
	

      <Placemark>
	<styleUrl>#sd</styleUrl>
        <name>RWVkNI2eugmK</name>
        <Point><coordinates>-77.0236671828,38.8941637027,0</coordinates></Point>
      </Placemark>
	

	      <Placemark>
		<name>RfmiOsck22e4</name>
		<styleUrl>#bs</styleUrl>
		<Point><coordinates>-77.0105290209,38.8902489885,0</coordinates></Point>
		<description>d2hxwnssq7ss7g.cloudfront.net/RfmiOsck22e4_cvt.mp4</description>
	      </Placemark>
		

      <Placemark>
	<styleUrl>#sd</styleUrl>
        <name>SINnkDbJKVVy</name>
        <Point><coordinates>-77.0058659098,38.8913214105,0</coordinates></Point>
      </Placemark>
	

      <Placemark>
	<styleUrl>#sd</styleUrl>
        <name>SKOT75i5BAw7</name>
        <Point><coordinates>-77.0317752674,38.8956492019,0</coordinates></Point>
      </Placemark>
	

	      <Placemark>
		<name>SRpNqkWUHoLX</name>
		<styleUrl>#bs</styleUrl>
		<Point><coordinates>-77.0335495533,38.8964578897,0</coordinates></Point>
		<description>d2hxwnssq7ss7g.cloudfront.net/SRpNqkWUHoLX_cvt.mp4</description>
	      </Placemark>
		

	      <Placemark>
		<name>SWab7JCv7fyX</name>
		<styleUrl>#rs</styleUrl>
		<Point><coordinates>-77.031250096,38.8958248515,0</coordinates></Point>
		<description>d2amdhggrspxsl.cloudfront.net/s3vids/SWab7JCv7fyX.converted.mp4</description>
	      </Placemark>
		

      <Placemark>
	<styleUrl>#sd</styleUrl>
        <name>SYQaXwuGxA8f</name>
        <Point><coordinates>-77.0365396018,38.9032778927,0</coordinates></Point>
      </Placemark>
	

      <Placemark>
	<styleUrl>#sd</styleUrl>
        <name>SfmYCe8DhMPA</name>
        <Point><coordinates>-77.0200183301,38.9284930062,0</coordinates></Point>
      </Placemark>
	

      <Placemark>
	<styleUrl>#sd</styleUrl>
        <name>SjEbItHZFM0X</name>
        <Point><coordinates>-77.0313279101,38.8956674106,0</coordinates></Point>
      </Placemark>
	

	      <Placemark>
		<name>Sk5gvoxK8K1r</name>
		<styleUrl>#rs</styleUrl>
		<Point><coordinates>-77.0122015396,38.8893372073,0</coordinates></Point>
		<description>d2hxwnssq7ss7g.cloudfront.net/Sk5gvoxK8K1r_cvt.mp4</description>
	      </Placemark>
		

	      <Placemark>
		<name>T6crwRF3b40U</name>
		<styleUrl>#ys</styleUrl>
		<Point><coordinates>-77.0115722004,38.8899572848,0</coordinates></Point>
		<description>d2amdhggrspxsl.cloudfront.net/s3vids/T6crwRF3b40U.converted.mp4</description>
	      </Placemark>
		

      <Placemark>
	<styleUrl>#sd</styleUrl>
        <name>TRCvC55pmVXD</name>
        <Point><coordinates>-77.0090262325,38.8973405001,0</coordinates></Point>
      </Placemark>
	

	      <Placemark>
		<name>TZMPQmDrtK0N</name>
		<styleUrl>#rs</styleUrl>
		<Point><coordinates>-77.0354488732,38.890393227,0</coordinates></Point>
		<description>d2hxwnssq7ss7g.cloudfront.net/TZMPQmDrtK0N_cvt.mp4</description>
	      </Placemark>
		

	      <Placemark>
		<name>TpOTFnspe5yH</name>
		<styleUrl>#ys</styleUrl>
		<Point><coordinates>-77.0058643976,38.890731389,0</coordinates></Point>
		<description>d2amdhggrspxsl.cloudfront.net/s3vids/TpOTFnspe5yH.converted.mp4</description>
	      </Placemark>
		

	      <Placemark>
		<name>TxM1JgGIikUv</name>
		<styleUrl>#gs</styleUrl>
		<Point><coordinates>-77.0363128386,38.901419812,0</coordinates></Point>
		<description>d2amdhggrspxsl.cloudfront.net/s3vids/TxM1JgGIikUv.converted.mp4</description>
	      </Placemark>
		

	      <Placemark>
		<name>U3vPnSCxokUn</name>
		<styleUrl>#ys</styleUrl>
		<Point><coordinates>-77.0108525996,38.8897566889,0</coordinates></Point>
		<description>d2hxwnssq7ss7g.cloudfront.net/U3vPnSCxokUn_cvt.mp4</description>
	      </Placemark>
		

	      <Placemark>
		<name>UJcZiDdVVVUG</name>
		<styleUrl>#bs</styleUrl>
		<Point><coordinates>-77.007089745,38.8894429376,0</coordinates></Point>
		<description>d2amdhggrspxsl.cloudfront.net/s3vids/UJcZiDdVVVUG.converted.mp4</description>
	      </Placemark>
		

	      <Placemark>
		<name>UZhmf5vyUry9</name>
		<styleUrl>#gs</styleUrl>
		<Point><coordinates>-77.0459650094,38.8882632618,0</coordinates></Point>
		<description>d2amdhggrspxsl.cloudfront.net/s3vids/UZhmf5vyUry9.converted.mp4</description>
	      </Placemark>
		

      <Placemark>
	<styleUrl>#sd</styleUrl>
        <name>UtznyTQf6eYE</name>
        <Point><coordinates>-77.0311848697,38.8956247129,0</coordinates></Point>
      </Placemark>
	

      <Placemark>
	<styleUrl>#sd</styleUrl>
        <name>UxO6KhjrmJnP</name>
        <Point><coordinates>-77.0263437926,38.8961874653,0</coordinates></Point>
      </Placemark>
	

      <Placemark>
	<styleUrl>#sd</styleUrl>
        <name>VPv13yKLMUEX</name>
        <Point><coordinates>-77.0149371295,38.8913922883,0</coordinates></Point>
      </Placemark>
	

      <Placemark>
	<styleUrl>#sd</styleUrl>
        <name>VVoRi15B0zgz</name>
        <Point><coordinates>-77.0320964937,38.8961404831,0</coordinates></Point>
      </Placemark>
	

	      <Placemark>
		<name>VWFFMwOyqqse</name>
		<styleUrl>#gs</styleUrl>
		<Point><coordinates>-77.0273248701,38.8961661609,0</coordinates></Point>
		<description>d2amdhggrspxsl.cloudfront.net/s3vids/VWFFMwOyqqse.converted.mp4</description>
	      </Placemark>
		

	      <Placemark>
		<name>Vfb7RDCU9APR</name>
		<styleUrl>#gs</styleUrl>
		<Point><coordinates>-77.0341737539,38.8912115179,0</coordinates></Point>
		<description>d2amdhggrspxsl.cloudfront.net/s3vids/Vfb7RDCU9APR.converted.mp4</description>
	      </Placemark>
		

      <Placemark>
	<styleUrl>#sd</styleUrl>
        <name>VkiQFnIpMH1W</name>
        <Point><coordinates>-77.0089497779,38.8920718128,0</coordinates></Point>
      </Placemark>
	

	      <Placemark>
		<name>W0M6jS61D3P5</name>
		<styleUrl>#bs</styleUrl>
		<Point><coordinates>-77.0111478987,38.8902687994,0</coordinates></Point>
		<description>d2amdhggrspxsl.cloudfront.net/s3vids/W0M6jS61D3P5.converted.mp4</description>
	      </Placemark>
		

	      <Placemark>
		<name>W5teVKSKYNXo</name>
		<styleUrl>#gs</styleUrl>
		<Point><coordinates>-77.0058788552,38.8896101952,0</coordinates></Point>
		<description>d2amdhggrspxsl.cloudfront.net/s3vids/W5teVKSKYNXo.converted.mp4</description>
	      </Placemark>
		

	      <Placemark>
		<name>W6XYUCz6qu6J</name>
		<styleUrl>#gs</styleUrl>
		<Point><coordinates>-77.0363319677,38.8919734628,0</coordinates></Point>
		<description>d2hxwnssq7ss7g.cloudfront.net/W6XYUCz6qu6J_cvt.mp4</description>
	      </Placemark>
		

      <Placemark>
	<styleUrl>#sd</styleUrl>
        <name>WCdYhCsOn7cV</name>
        <Point><coordinates>-77.0241768147,38.8894885071,0</coordinates></Point>
      </Placemark>
	

      <Placemark>
	<styleUrl>#sd</styleUrl>
        <name>WEoLQ2F7Iydi</name>
        <Point><coordinates>-77.0061249509,38.8905855092,0</coordinates></Point>
      </Placemark>
	

      <Placemark>
	<styleUrl>#sd</styleUrl>
        <name>WMSgfSnYOjtM</name>
        <Point><coordinates>-77.0261541613,38.8962015794,0</coordinates></Point>
      </Placemark>
	

	      <Placemark>
		<name>WXkILSGX6H82</name>
		<styleUrl>#bs</styleUrl>
		<Point><coordinates>-77.0229270765,38.8938255006,0</coordinates></Point>
		<description>d2amdhggrspxsl.cloudfront.net/s3vids/WXkILSGX6H82.converted.mp4</description>
	      </Placemark>
		

      <Placemark>
	<styleUrl>#sd</styleUrl>
        <name>WhLKwFSydgWN</name>
        <Point><coordinates>-76.9736689828,38.928171204,0</coordinates></Point>
      </Placemark>
	

	      <Placemark>
		<name>WkE9fuIPjtKe</name>
		<styleUrl>#rs</styleUrl>
		<Point><coordinates>-77.0309337543,38.8961471211,0</coordinates></Point>
		<description>d2amdhggrspxsl.cloudfront.net/s3vids/WkE9fuIPjtKe.converted.mp4</description>
	      </Placemark>
		

      <Placemark>
	<styleUrl>#sd</styleUrl>
        <name>Wp7B67DcwpQi</name>
        <Point><coordinates>-77.0082758522,38.8913641927,0</coordinates></Point>
      </Placemark>
	

	      <Placemark>
		<name>Wp6H4HF5cGPh</name>
		<styleUrl>#bs</styleUrl>
		<Point><coordinates>-77.0170515051,38.8970290741,0</coordinates></Point>
		<description>d2amdhggrspxsl.cloudfront.net/s3vids/Wp6H4HF5cGPh.converted.mp4</description>
	      </Placemark>
		

	      <Placemark>
		<name>WvNy0mY8LFTq</name>
		<styleUrl>#ys</styleUrl>
		<Point><coordinates>-77.0080686518,38.8897904265,0</coordinates></Point>
		<description>d2hxwnssq7ss7g.cloudfront.net/WvNy0mY8LFTq_cvt.mp4</description>
	      </Placemark>
		

      <Placemark>
	<styleUrl>#sd</styleUrl>
        <name>WyOKZccnn8dC</name>
        <Point><coordinates>-77.0155921936,38.8919676181,0</coordinates></Point>
      </Placemark>
	

	      <Placemark>
		<name>X0dtqNhkLfxx</name>
		<styleUrl>#rs</styleUrl>
		<Point><coordinates>-77.0273522641,38.8962641421,0</coordinates></Point>
		<description>d2amdhggrspxsl.cloudfront.net/s3vids/X0dtqNhkLfxx.converted.mp4</description>
	      </Placemark>
		

	      <Placemark>
		<name>X3O4lkVyQ2b5</name>
		<styleUrl>#bs</styleUrl>
		<Point><coordinates>-77.0360709582,38.8920159384,0</coordinates></Point>
		<description>d2hxwnssq7ss7g.cloudfront.net/X3O4lkVyQ2b5_cvt.mp4</description>
	      </Placemark>
		

	      <Placemark>
		<name>X49SN1j31V3f</name>
		<styleUrl>#ys</styleUrl>
		<Point><coordinates>-77.0348796603,38.8897274072,0</coordinates></Point>
		<description>d2amdhggrspxsl.cloudfront.net/s3vids/X49SN1j31V3f.converted.mp4</description>
	      </Placemark>
		

      <Placemark>
	<styleUrl>#sd</styleUrl>
        <name>XGxtrQAr7QOi</name>
        <Point><coordinates>-77.0266625618,38.8921161246,0</coordinates></Point>
      </Placemark>
	

      <Placemark>
	<styleUrl>#sd</styleUrl>
        <name>XPcQa9r1x2q8</name>
        <Point><coordinates>-77.032058288,38.8967266966,0</coordinates></Point>
      </Placemark>
	

	      <Placemark>
		<name>XXbKVa1YMVZe</name>
		<styleUrl>#ys</styleUrl>
		<Point><coordinates>-77.0119331637,38.8890514958,0</coordinates></Point>
		<description>d2hxwnssq7ss7g.cloudfront.net/XXbKVa1YMVZe_cvt.mp4</description>
	      </Placemark>
		

      <Placemark>
	<styleUrl>#sd</styleUrl>
        <name>Xg6g1UKjAOdd</name>
        <Point><coordinates>-77.0090644266,38.8894750526,0</coordinates></Point>
      </Placemark>
	

	      <Placemark>
		<name>Yv60aO8hsb4H</name>
		<styleUrl>#bs</styleUrl>
		<Point><coordinates>-77.007369402,38.8903161358,0</coordinates></Point>
		<description>d2hxwnssq7ss7g.cloudfront.net/Yv60aO8hsb4H_cvt.mp4</description>
	      </Placemark>
		

	      <Placemark>
		<name>Z2CUIi2exmnO</name>
		<styleUrl>#rs</styleUrl>
		<Point><coordinates>-77.0306188748,38.8958723889,0</coordinates></Point>
		<description>d2amdhggrspxsl.cloudfront.net/s3vids/Z2CUIi2exmnO.converted.mp4</description>
	      </Placemark>
		

	      <Placemark>
		<name>Z8A5dWvZXeWv</name>
		<styleUrl>#rs</styleUrl>
		<Point><coordinates>-77.0324777928,38.8914574128,0</coordinates></Point>
		<description>d2hxwnssq7ss7g.cloudfront.net/Z8A5dWvZXeWv_cvt.mp4</description>
	      </Placemark>
		

	      <Placemark>
		<name>ZA2qdOAiaDJo</name>
		<styleUrl>#bs</styleUrl>
		<Point><coordinates>-77.0110397416,38.8921230255,0</coordinates></Point>
		<description>d2amdhggrspxsl.cloudfront.net/s3vids/ZA2qdOAiaDJo.converted.mp4</description>
	      </Placemark>
		

	      <Placemark>
		<name>ZHX7ZrxgXRUH</name>
		<styleUrl>#bs</styleUrl>
		<Point><coordinates>-77.0361615105,38.8915079524,0</coordinates></Point>
		<description>d2amdhggrspxsl.cloudfront.net/s3vids/ZHX7ZrxgXRUH.converted.mp4</description>
	      </Placemark>
		

      <Placemark>
	<styleUrl>#sd</styleUrl>
        <name>Zlm4B3PVfc6Q</name>
        <Point><coordinates>-77.0296171562,38.8955455104,0</coordinates></Point>
      </Placemark>
	

      <Placemark>
	<styleUrl>#sd</styleUrl>
        <name>ZzbV0rOg4p43</name>
        <Point><coordinates>-77.0305089238,38.8956807288,0</coordinates></Point>
      </Placemark>
	

      <Placemark>
	<styleUrl>#sd</styleUrl>
        <name>a0uJR967hY98</name>
        <Point><coordinates>-77.0313212109,38.8959670093,0</coordinates></Point>
      </Placemark>
	

	      <Placemark>
		<name>aRvJC6rVZgd4</name>
		<styleUrl>#rs</styleUrl>
		<Point><coordinates>-77.0101127642,38.891827535,0</coordinates></Point>
		<description>d2amdhggrspxsl.cloudfront.net/s3vids/aRvJC6rVZgd4.converted.mp4</description>
	      </Placemark>
		

      <Placemark>
	<styleUrl>#sd</styleUrl>
        <name>aYnpYM5L5A0k</name>
        <Point><coordinates>-77.0311164265,38.8960611482,0</coordinates></Point>
      </Placemark>
	

	      <Placemark>
		<name>adtV4zbkXr5x</name>
		<styleUrl>#bs</styleUrl>
		<Point><coordinates>-77.0103483914,38.890211034,0</coordinates></Point>
		<description>d2amdhggrspxsl.cloudfront.net/s3vids/adtV4zbkXr5x.converted.mp4</description>
	      </Placemark>
		

	      <Placemark>
		<name>agiDC8ls5WwD</name>
		<styleUrl>#rs</styleUrl>
		<Point><coordinates>-77.0360037169,38.9015783257,0</coordinates></Point>
		<description>d2hxwnssq7ss7g.cloudfront.net/agiDC8ls5WwD_cvt.mp4</description>
	      </Placemark>
		

	      <Placemark>
		<name>ayocSVsXW3h3</name>
		<styleUrl>#rs</styleUrl>
		<Point><coordinates>-77.0105450257,38.8900926302,0</coordinates></Point>
		<description>d2hxwnssq7ss7g.cloudfront.net/ayocSVsXW3h3_cvt.mp4</description>
	      </Placemark>
		

	      <Placemark>
		<name>b5lCVIHnrm2q</name>
		<styleUrl>#ys</styleUrl>
		<Point><coordinates>-77.0103737098,38.8899242911,0</coordinates></Point>
		<description>d2amdhggrspxsl.cloudfront.net/s3vids/b5lCVIHnrm2q.converted.mp4</description>
	      </Placemark>
		

      <Placemark>
	<styleUrl>#sd</styleUrl>
        <name>bBdCTxRjNxTK</name>
        <Point><coordinates>-77.0303040564,38.8959077069,0</coordinates></Point>
      </Placemark>
	

      <Placemark>
	<styleUrl>#sd</styleUrl>
        <name>bL5i57vzMs1K</name>
        <Point><coordinates>-77.0199649721,38.9286472628,0</coordinates></Point>
      </Placemark>
	

      <Placemark>
	<styleUrl>#sd</styleUrl>
        <name>bQB00UD5e5jG</name>
        <Point><coordinates>-77.0121660321,38.8916613495,0</coordinates></Point>
      </Placemark>
	

	      <Placemark>
		<name>bTZISxkK39sH</name>
		<styleUrl>#rs</styleUrl>
		<Point><coordinates>-77.0087456427,38.8896748918,0</coordinates></Point>
		<description>https://www.youtube.com/embed/x2WDuF5jsgg</description>
	      </Placemark>
		

      <Placemark>
	<styleUrl>#sd</styleUrl>
        <name>bakOqDJTBp8Q</name>
        <Point><coordinates>-77.0305091877,38.8957570213,0</coordinates></Point>
      </Placemark>
	

	      <Placemark>
		<name>biyBKCimTPsu</name>
		<styleUrl>#ys</styleUrl>
		<Point><coordinates>-77.0307534026,38.8962376349,0</coordinates></Point>
		<description>d2amdhggrspxsl.cloudfront.net/s3vids/biyBKCimTPsu.converted.mp4</description>
	      </Placemark>
		

      <Placemark>
	<styleUrl>#sd</styleUrl>
        <name>c7d5vn7Dlpo4</name>
        <Point><coordinates>-77.0303730456,38.8958965839,0</coordinates></Point>
      </Placemark>
	

	      <Placemark>
		<name>cVT9vWysmxdS</name>
		<styleUrl>#gs</styleUrl>
		<Point><coordinates>-77.0098034622,38.8979751173,0</coordinates></Point>
		<description>d2amdhggrspxsl.cloudfront.net/s3vids/cVT9vWysmxdS.converted.mp4</description>
	      </Placemark>
		

      <Placemark>
	<styleUrl>#sd</styleUrl>
        <name>chNlwfMrjmYJ</name>
        <Point><coordinates>-77.027317667,38.8962824439,0</coordinates></Point>
      </Placemark>
	

      <Placemark>
	<styleUrl>#sd</styleUrl>
        <name>d5gJuCBu7RI7</name>
        <Point><coordinates>-77.0322801046,38.8959250214,0</coordinates></Point>
      </Placemark>
	

      <Placemark>
	<styleUrl>#sd</styleUrl>
        <name>dT7mBZdL2Jqa</name>
        <Point><coordinates>-77.0271922744,38.8895938291,0</coordinates></Point>
      </Placemark>
	

	      <Placemark>
		<name>dvST93gaZo1o</name>
		<styleUrl>#rs</styleUrl>
		<Point><coordinates>-77.0060132636,38.8905933073,0</coordinates></Point>
		<description>d2amdhggrspxsl.cloudfront.net/s3vids/dvST93gaZo1o.converted.mp4</description>
	      </Placemark>
		

	      <Placemark>
		<name>dy5GFIwCwuOP</name>
		<styleUrl>#rs</styleUrl>
		<Point><coordinates>-77.0383151455,38.8921890871,0</coordinates></Point>
		<description>d2amdhggrspxsl.cloudfront.net/s3vids/dy5GFIwCwuOP.converted.mp4</description>
	      </Placemark>
		

	      <Placemark>
		<name>e8PppkH5mMcT</name>
		<styleUrl>#rs</styleUrl>
		<Point><coordinates>-77.0349355606,38.8923479922,0</coordinates></Point>
		<description>d2amdhggrspxsl.cloudfront.net/s3vids/e8PppkH5mMcT.converted.mp4</description>
	      </Placemark>
		

      <Placemark>
	<styleUrl>#sd</styleUrl>
        <name>eGOoR3I08FkK</name>
        <Point><coordinates>-77.0107389936,38.8902758139,0</coordinates></Point>
      </Placemark>
	

      <Placemark>
	<styleUrl>#sd</styleUrl>
        <name>eGWFiGU2WtR8</name>
        <Point><coordinates>-77.0365564718,38.8917287909,0</coordinates></Point>
      </Placemark>
	

      <Placemark>
	<styleUrl>#sd</styleUrl>
        <name>elO7ySjdGZub</name>
        <Point><coordinates>-77.0059580632,38.8904643186,0</coordinates></Point>
      </Placemark>
	

      <Placemark>
	<styleUrl>#sd</styleUrl>
        <name>esDUnWVLgG6n</name>
        <Point><coordinates>-77.0073967344,38.8898147021,0</coordinates></Point>
      </Placemark>
	

	      <Placemark>
		<name>fL9NNzlDZMmH</name>
		<styleUrl>#rs</styleUrl>
		<Point><coordinates>-77.0240211974,38.8967504363,0</coordinates></Point>
		<description>d2amdhggrspxsl.cloudfront.net/s3vids/fL9NNzlDZMmH.converted.mp4</description>
	      </Placemark>
		

	      <Placemark>
		<name>fR3uMI0eP5i4</name>
		<styleUrl>#gs</styleUrl>
		<Point><coordinates>-77.0310267789,38.8960694476,0</coordinates></Point>
		<description>d2hxwnssq7ss7g.cloudfront.net/fR3uMI0eP5i4_cvt.mp4</description>
	      </Placemark>
		

	      <Placemark>
		<name>fT9hBhlaFgZd</name>
		<styleUrl>#gs</styleUrl>
		<Point><coordinates>-77.0105113716,38.8897740081,0</coordinates></Point>
		<description>d2hxwnssq7ss7g.cloudfront.net/fT9hBhlaFgZd_cvt.mp4</description>
	      </Placemark>
		

	      <Placemark>
		<name>fayNJbjcqXWg</name>
		<styleUrl>#ys</styleUrl>
		<Point><coordinates>-77.0071365622,38.8901933718,0</coordinates></Point>
		<description>d2amdhggrspxsl.cloudfront.net/s3vids/fayNJbjcqXWg.converted.mp4</description>
	      </Placemark>
		

      <Placemark>
	<styleUrl>#sd</styleUrl>
        <name>fbBv4EmEzw9i</name>
        <Point><coordinates>-77.0316784931,38.8959712107,0</coordinates></Point>
      </Placemark>
	

	      <Placemark>
		<name>fcfIbDNNJlsD</name>
		<styleUrl>#bs</styleUrl>
		<Point><coordinates>-77.0195698218,38.896167247,0</coordinates></Point>
		<description>d2amdhggrspxsl.cloudfront.net/s3vids/fcfIbDNNJlsD.converted.mp4</description>
	      </Placemark>
		

	      <Placemark>
		<name>fhqU4rQ4ZFzO</name>
		<styleUrl>#rs</styleUrl>
		<Point><coordinates>-77.0100155944,38.8898987209,0</coordinates></Point>
		<description>d2hxwnssq7ss7g.cloudfront.net/fhqU4rQ4ZFzO_cvt.mp4</description>
	      </Placemark>
		

	      <Placemark>
		<name>fjnPyq0YXD40</name>
		<styleUrl>#bs</styleUrl>
		<Point><coordinates>-77.0357514717,38.8893194472,0</coordinates></Point>
		<description>d2amdhggrspxsl.cloudfront.net/s3vids/fjnPyq0YXD40.converted.mp4</description>
	      </Placemark>
		

	      <Placemark>
		<name>fqMErkRVItV0</name>
		<styleUrl>#bs</styleUrl>
		<Point><coordinates>-77.0105286059,38.8902114704,0</coordinates></Point>
		<description>d2hxwnssq7ss7g.cloudfront.net/fqMErkRVItV0_cvt.mp4</description>
	      </Placemark>
		

	      <Placemark>
		<name>g5Yl8ERzrXxe</name>
		<styleUrl>#ys</styleUrl>
		<Point><coordinates>-77.0100404902,38.8905668269,0</coordinates></Point>
		<description>d2amdhggrspxsl.cloudfront.net/s3vids/g5Yl8ERzrXxe.converted.mp4</description>
	      </Placemark>
		

      <Placemark>
	<styleUrl>#sd</styleUrl>
        <name>gCIzeIMv3uwV</name>
        <Point><coordinates>-77.0302415723,38.8959309599,0</coordinates></Point>
      </Placemark>
	

      <Placemark>
	<styleUrl>#sd</styleUrl>
        <name>gZ02yZCtxC2C</name>
        <Point><coordinates>-77.0310829754,38.8959368269,0</coordinates></Point>
      </Placemark>
	

      <Placemark>
	<styleUrl>#sd</styleUrl>
        <name>gj867lWsCvHv</name>
        <Point><coordinates>-77.011943107,38.8906047457,0</coordinates></Point>
      </Placemark>
	

	      <Placemark>
		<name>guy64xqjKgEF</name>
		<styleUrl>#ys</styleUrl>
		<Point><coordinates>-77.0108428452,38.8920411658,0</coordinates></Point>
		<description>d2amdhggrspxsl.cloudfront.net/s3vids/guy64xqjKgEF.converted.mp4</description>
	      </Placemark>
		

	      <Placemark>
		<name>gyQ4hi1OVvNQ</name>
		<styleUrl>#ys</styleUrl>
		<Point><coordinates>-77.0366367818,38.891862077,0</coordinates></Point>
		<description>d2hxwnssq7ss7g.cloudfront.net/gyQ4hi1OVvNQ_cvt.mp4</description>
	      </Placemark>
		

	      <Placemark>
		<name>h7fR4kXQv2Mg</name>
		<styleUrl>#ys</styleUrl>
		<Point><coordinates>-77.010887245,38.8920641546,0</coordinates></Point>
		<description>d2amdhggrspxsl.cloudfront.net/s3vids/h7fR4kXQv2Mg.converted.mp4</description>
	      </Placemark>
		

	      <Placemark>
		<name>hG1jccUFQzXx</name>
		<styleUrl>#gs</styleUrl>
		<Point><coordinates>-77.0317224155,38.8958082162,0</coordinates></Point>
		<description>d2amdhggrspxsl.cloudfront.net/s3vids/hG1jccUFQzXx.converted.mp4</description>
	      </Placemark>
		

	      <Placemark>
		<name>hL3LsRN1titr</name>
		<styleUrl>#rs</styleUrl>
		<Point><coordinates>-77.0113340073,38.8903770273,0</coordinates></Point>
		<description>d2amdhggrspxsl.cloudfront.net/s3vids/hL3LsRN1titr.converted.mp4</description>
	      </Placemark>
		

	      <Placemark>
		<name>hg5pS8dNppFa</name>
		<styleUrl>#gs</styleUrl>
		<Point><coordinates>-77.0101774721,38.8898436086,0</coordinates></Point>
		<description>d2hxwnssq7ss7g.cloudfront.net/hg5pS8dNppFa_cvt.mp4</description>
	      </Placemark>
		

	      <Placemark>
		<name>hgQYuqIrZTls</name>
		<styleUrl>#rs</styleUrl>
		<Point><coordinates>-77.010624198,38.8899893177,0</coordinates></Point>
		<description>d2hxwnssq7ss7g.cloudfront.net/hgQYuqIrZTls_cvt.mp4</description>
	      </Placemark>
		

	      <Placemark>
		<name>hr06Kn7hkUP1</name>
		<styleUrl>#bs</styleUrl>
		<Point><coordinates>-77.0105378326,38.8897216506,0</coordinates></Point>
		<description>d2hxwnssq7ss7g.cloudfront.net/hr06Kn7hkUP1_cvt.mp4</description>
	      </Placemark>
		

      <Placemark>
	<styleUrl>#sd</styleUrl>
        <name>hu1xEsQ2LWOO</name>
        <Point><coordinates>-77.0315437107,38.8955198664,0</coordinates></Point>
      </Placemark>
	

	      <Placemark>
		<name>i7xUeEr5Ysmm</name>
		<styleUrl>#gs</styleUrl>
		<Point><coordinates>-77.0132505396,38.8912305224,0</coordinates></Point>
		<description>d2amdhggrspxsl.cloudfront.net/s3vids/i7xUeEr5Ysmm.converted.mp4</description>
	      </Placemark>
		

      <Placemark>
	<styleUrl>#sd</styleUrl>
        <name>i9zf6FWa2biT</name>
        <Point><coordinates>-77.0288534596,38.8894674686,0</coordinates></Point>
      </Placemark>
	

      <Placemark>
	<styleUrl>#sd</styleUrl>
        <name>iSylgdmLFlrk</name>
        <Point><coordinates>-77.0121393636,38.8912469435,0</coordinates></Point>
      </Placemark>
	

      <Placemark>
	<styleUrl>#sd</styleUrl>
        <name>iWy0LDSY1Pzw</name>
        <Point><coordinates>-77.0320919784,38.8969732511,0</coordinates></Point>
      </Placemark>
	

      <Placemark>
	<styleUrl>#sd</styleUrl>
        <name>iaGerF4ZUVB5</name>
        <Point><coordinates>-77.0200757593,38.9284306983,0</coordinates></Point>
      </Placemark>
	

	      <Placemark>
		<name>iarzfMQKhqPN</name>
		<styleUrl>#gs</styleUrl>
		<Point><coordinates>-77.0349127553,38.8922122318,0</coordinates></Point>
		<description>d2hxwnssq7ss7g.cloudfront.net/iarzfMQKhqPN_cvt.mp4</description>
	      </Placemark>
		

	      <Placemark>
		<name>ijwcgCCsZfdl</name>
		<styleUrl>#ys</styleUrl>
		<Point><coordinates>-77.0139726784,38.8912550843,0</coordinates></Point>
		<description>d2hxwnssq7ss7g.cloudfront.net/ijwcgCCsZfdl_cvt.mp4</description>
	      </Placemark>
		

	      <Placemark>
		<name>iqf7FPtd8arV</name>
		<styleUrl>#gs</styleUrl>
		<Point><coordinates>-77.0345692022,38.8917328293,0</coordinates></Point>
		<description>d2hxwnssq7ss7g.cloudfront.net/iqf7FPtd8arV_cvt.mp4</description>
	      </Placemark>
		

      <Placemark>
	<styleUrl>#sd</styleUrl>
        <name>j0flaNpLgmi3</name>
        <Point><coordinates>-77.0168180039,38.8922026202,0</coordinates></Point>
      </Placemark>
	

	      <Placemark>
		<name>jNECpFrRhbpg</name>
		<styleUrl>#ys</styleUrl>
		<Point><coordinates>-77.0102825817,38.8900828715,0</coordinates></Point>
		<description>d2hxwnssq7ss7g.cloudfront.net/jNECpFrRhbpg_cvt.mp4</description>
	      </Placemark>
		

	      <Placemark>
		<name>jswdPZ70U3Uw</name>
		<styleUrl>#ys</styleUrl>
		<Point><coordinates>-77.0319747279,38.8852918069,0</coordinates></Point>
		<description>d2amdhggrspxsl.cloudfront.net/s3vids/jswdPZ70U3Uw.converted.mp4</description>
	      </Placemark>
		

	      <Placemark>
		<name>jsswcn7pfQoQ</name>
		<styleUrl>#gs</styleUrl>
		<Point><coordinates>-77.0312385299,38.8958398202,0</coordinates></Point>
		<description>d2amdhggrspxsl.cloudfront.net/s3vids/jsswcn7pfQoQ.converted.mp4</description>
	      </Placemark>
		

	      <Placemark>
		<name>jxQHmvwEr9K0</name>
		<styleUrl>#rs</styleUrl>
		<Point><coordinates>-77.0348218308,38.8920721658,0</coordinates></Point>
		<description>d2amdhggrspxsl.cloudfront.net/s3vids/jxQHmvwEr9K0.converted.mp4</description>
	      </Placemark>
		

	      <Placemark>
		<name>k2X98xAHmHWa</name>
		<styleUrl>#rs</styleUrl>
		<Point><coordinates>-77.0094703932,38.8903449224,0</coordinates></Point>
		<description>d2hxwnssq7ss7g.cloudfront.net/k2X98xAHmHWa_cvt.mp4</description>
	      </Placemark>
		

      <Placemark>
	<styleUrl>#sd</styleUrl>
        <name>k88WI1wfme63</name>
        <Point><coordinates>-77.0312259079,38.8957729012,0</coordinates></Point>
      </Placemark>
	

	      <Placemark>
		<name>kQ0ltkpwFuvd</name>
		<styleUrl>#ys</styleUrl>
		<Point><coordinates>-77.0363279841,38.8916943887,0</coordinates></Point>
		<description>d2hxwnssq7ss7g.cloudfront.net/kQ0ltkpwFuvd_cvt.mp4</description>
	      </Placemark>
		

      <Placemark>
	<styleUrl>#sd</styleUrl>
        <name>kVQRUSdJZILN</name>
        <Point><coordinates>-77.0309020691,38.8958405534,0</coordinates></Point>
      </Placemark>
	

	      <Placemark>
		<name>kau2NI4P6n48</name>
		<styleUrl>#gs</styleUrl>
		<Point><coordinates>-77.0103729528,38.8903685681,0</coordinates></Point>
		<description>d2hxwnssq7ss7g.cloudfront.net/kau2NI4P6n48_cvt.mp4</description>
	      </Placemark>
		

      <Placemark>
	<styleUrl>#sd</styleUrl>
        <name>kbHLu1MNgOgl</name>
        <Point><coordinates>-77.0054612936,38.8903114271,0</coordinates></Point>
      </Placemark>
	

	      <Placemark>
		<name>kgoySSVz8sOy</name>
		<styleUrl>#gs</styleUrl>
		<Point><coordinates>-77.0116585609,38.8906363457,0</coordinates></Point>
		<description>d2hxwnssq7ss7g.cloudfront.net/kgoySSVz8sOy_cvt.mp4</description>
	      </Placemark>
		

      <Placemark>
	<styleUrl>#sd</styleUrl>
        <name>l0zTVw1Nz8AZ</name>
        <Point><coordinates>-77.0149688814,38.8920890423,0</coordinates></Point>
      </Placemark>
	

	      <Placemark>
		<name>lTZkY2ypwhFT</name>
		<styleUrl>#ys</styleUrl>
		<Point><coordinates>-77.0363884912,38.9012528366,0</coordinates></Point>
		<description>d2hxwnssq7ss7g.cloudfront.net/lTZkY2ypwhFT_cvt.mp4</description>
	      </Placemark>
		

      <Placemark>
	<styleUrl>#sd</styleUrl>
        <name>lZ79WP2S5UUZ</name>
        <Point><coordinates>-77.0183266692,38.8922899377,0</coordinates></Point>
      </Placemark>
	

      <Placemark>
	<styleUrl>#sd</styleUrl>
        <name>leF1m0XwjsTR</name>
        <Point><coordinates>-77.0178770488,38.8921480388,0</coordinates></Point>
      </Placemark>
	

      <Placemark>
	<styleUrl>#sd</styleUrl>
        <name>llhcmHyVF6fl</name>
        <Point><coordinates>-77.027072181,38.8999636415,0</coordinates></Point>
      </Placemark>
	

      <Placemark>
	<styleUrl>#sd</styleUrl>
        <name>ltsd2rCpGHb2</name>
        <Point><coordinates>-77.031166255,38.8956498847,0</coordinates></Point>
      </Placemark>
	

      <Placemark>
	<styleUrl>#sd</styleUrl>
        <name>lwsbpHjteNDM</name>
        <Point><coordinates>-77.0309425582,38.8956965305,0</coordinates></Point>
      </Placemark>
	

      <Placemark>
	<styleUrl>#sd</styleUrl>
        <name>m2MYha7oj5Up</name>
        <Point><coordinates>-77.0125705062,38.8922435837,0</coordinates></Point>
      </Placemark>
	

	      <Placemark>
		<name>m4XCINGgSKee</name>
		<styleUrl>#bs</styleUrl>
		<Point><coordinates>-77.0103804915,38.8901023728,0</coordinates></Point>
		<description>d2hxwnssq7ss7g.cloudfront.net/m4XCINGgSKee_cvt.mp4</description>
	      </Placemark>
		

      <Placemark>
	<styleUrl>#sd</styleUrl>
        <name>mD0ZC6PMF71x</name>
        <Point><coordinates>-77.0133324215,38.8911622711,0</coordinates></Point>
      </Placemark>
	

	      <Placemark>
		<name>mIn3PZBW1oY6</name>
		<styleUrl>#rs</styleUrl>
		<Point><coordinates>-77.0363490378,38.8919282833,0</coordinates></Point>
		<description>d2hxwnssq7ss7g.cloudfront.net/mIn3PZBW1oY6_cvt.mp4</description>
	      </Placemark>
		

      <Placemark>
	<styleUrl>#sd</styleUrl>
        <name>mKBu44BuTIOf</name>
        <Point><coordinates>-77.0280356128,38.8922588471,0</coordinates></Point>
      </Placemark>
	

	      <Placemark>
		<name>mLnzgyK1MjJG</name>
		<styleUrl>#ys</styleUrl>
		<Point><coordinates>-77.0369578086,38.8914387564,0</coordinates></Point>
		<description>d2amdhggrspxsl.cloudfront.net/s3vids/mLnzgyK1MjJG.converted.mp4</description>
	      </Placemark>
		

      <Placemark>
	<styleUrl>#sd</styleUrl>
        <name>mTENLwxiN9IY</name>
        <Point><coordinates>-77.0317906306,38.8972477328,0</coordinates></Point>
      </Placemark>
	

	      <Placemark>
		<name>mcF1quvpSvFu</name>
		<styleUrl>#ys</styleUrl>
		<Point><coordinates>-77.0352670727,38.9077771759,0</coordinates></Point>
		<description>d2hxwnssq7ss7g.cloudfront.net/mcF1quvpSvFu_cvt.mp4</description>
	      </Placemark>
		

      <Placemark>
	<styleUrl>#sd</styleUrl>
        <name>mdfto3jP9YME</name>
        <Point><coordinates>-77.0317096001,38.8956703134,0</coordinates></Point>
      </Placemark>
	

      <Placemark>
	<styleUrl>#sd</styleUrl>
        <name>mgPa98ehfKgQ</name>
        <Point><coordinates>-77.0318970152,38.8958618272,0</coordinates></Point>
      </Placemark>
	

      <Placemark>
	<styleUrl>#sd</styleUrl>
        <name>mnGbHgsVIgod</name>
        <Point><coordinates>-77.0313514948,38.8959679964,0</coordinates></Point>
      </Placemark>
	

	      <Placemark>
		<name>mnp38uv7p0Tz</name>
		<styleUrl>#rs</styleUrl>
		<Point><coordinates>-77.0106290528,38.8901457375,0</coordinates></Point>
		<description>d2amdhggrspxsl.cloudfront.net/s3vids/mnp38uv7p0Tz.converted.mp4</description>
	      </Placemark>
		

	      <Placemark>
		<name>n36b4RLj6RgU</name>
		<styleUrl>#gs</styleUrl>
		<Point><coordinates>-77.0333006858,38.8921058351,0</coordinates></Point>
		<description>d2hxwnssq7ss7g.cloudfront.net/n36b4RLj6RgU_cvt.mp4</description>
	      </Placemark>
		

	      <Placemark>
		<name>nX0DJVhP5fI0</name>
		<styleUrl>#ys</styleUrl>
		<Point><coordinates>-77.0116654863,38.8894571281,0</coordinates></Point>
		<description>d2hxwnssq7ss7g.cloudfront.net/nX0DJVhP5fI0_cvt.mp4</description>
	      </Placemark>
		

	      <Placemark>
		<name>nXQSQswzJbCj</name>
		<styleUrl>#ys</styleUrl>
		<Point><coordinates>-77.0319846853,38.8963682864,0</coordinates></Point>
		<description>d2amdhggrspxsl.cloudfront.net/s3vids/nXQSQswzJbCj.converted.mp4</description>
	      </Placemark>
		

      <Placemark>
	<styleUrl>#sd</styleUrl>
        <name>ngnsoQ4PQT8T</name>
        <Point><coordinates>-77.0062118153,38.8907083329,0</coordinates></Point>
      </Placemark>
	

      <Placemark>
	<styleUrl>#sd</styleUrl>
        <name>nrQQXSv99n2l</name>
        <Point><coordinates>-77.0309264246,38.8981279228,0</coordinates></Point>
      </Placemark>
	

	      <Placemark>
		<name>ns9EbTf56zJM</name>
		<styleUrl>#gs</styleUrl>
		<Point><coordinates>-77.0106565997,38.8899209003,0</coordinates></Point>
		<description>d2amdhggrspxsl.cloudfront.net/s3vids/ns9EbTf56zJM.converted.mp4</description>
	      </Placemark>
		

	      <Placemark>
		<name>ntxLrkKrjePR</name>
		<styleUrl>#gs</styleUrl>
		<Point><coordinates>-77.0332709136,38.8968083737,0</coordinates></Point>
		<description>d2amdhggrspxsl.cloudfront.net/s3vids/ntxLrkKrjePR.converted.mp4</description>
	      </Placemark>
		

      <Placemark>
	<styleUrl>#sd</styleUrl>
        <name>o2rK0URJkqxU</name>
        <Point><coordinates>-77.0110961086,38.8919385751,0</coordinates></Point>
      </Placemark>
	

	      <Placemark>
		<name>o7wldzOZ1oWk</name>
		<styleUrl>#ys</styleUrl>
		<Point><coordinates>-77.0216650862,38.8932562956,0</coordinates></Point>
		<description>d2amdhggrspxsl.cloudfront.net/s3vids/o7wldzOZ1oWk.converted.mp4</description>
	      </Placemark>
		

      <Placemark>
	<styleUrl>#sd</styleUrl>
        <name>oA12cDb5tYGx</name>
        <Point><coordinates>-77.0057811963,38.8913332242,0</coordinates></Point>
      </Placemark>
	

      <Placemark>
	<styleUrl>#sd</styleUrl>
        <name>oH1V5EIwRIpZ</name>
        <Point><coordinates>-77.0248784375,38.9003459883,0</coordinates></Point>
      </Placemark>
	

      <Placemark>
	<styleUrl>#sd</styleUrl>
        <name>oOaAbjGHOMlu</name>
        <Point><coordinates>-77.0345759244,38.8912241694,0</coordinates></Point>
      </Placemark>
	

      <Placemark>
	<styleUrl>#sd</styleUrl>
        <name>oQBnLGUhhWTU</name>
        <Point><coordinates>-77.0299994171,38.8958493099,0</coordinates></Point>
      </Placemark>
	

      <Placemark>
	<styleUrl>#sd</styleUrl>
        <name>ocAZoGvKg4kp</name>
        <Point><coordinates>-77.0316592451,38.8958746908,0</coordinates></Point>
      </Placemark>
	

	      <Placemark>
		<name>og2zOouYA0bD</name>
		<styleUrl>#bs</styleUrl>
		<Point><coordinates>-77.0344381484,38.8920121122,0</coordinates></Point>
		<description>d2hxwnssq7ss7g.cloudfront.net/og2zOouYA0bD_cvt.mp4</description>
	      </Placemark>
		

	      <Placemark>
		<name>oq0jpbCT651M</name>
		<styleUrl>#rs</styleUrl>
		<Point><coordinates>-77.0322120604,38.8920918538,0</coordinates></Point>
		<description>d2amdhggrspxsl.cloudfront.net/s3vids/oq0jpbCT651M.converted.mp4</description>
	      </Placemark>
		

	      <Placemark>
		<name>pN3q5NvwoghI</name>
		<styleUrl>#rs</styleUrl>
		<Point><coordinates>-77.0103487335,38.8896980181,0</coordinates></Point>
		<description>d2hxwnssq7ss7g.cloudfront.net/pN3q5NvwoghI_cvt.mp4</description>
	      </Placemark>
		

	      <Placemark>
		<name>pQNQvHA2ihe8</name>
		<styleUrl>#rs</styleUrl>
		<Point><coordinates>-77.0423496126,38.8562510393,0</coordinates></Point>
		<description>d2amdhggrspxsl.cloudfront.net/s3vids/pQNQvHA2ihe8.converted.mp4</description>
	      </Placemark>
		

      <Placemark>
	<styleUrl>#sd</styleUrl>
        <name>pdG1EKpyDttY</name>
        <Point><coordinates>-77.0270512174,38.8958576692,0</coordinates></Point>
      </Placemark>
	

	      <Placemark>
		<name>pnYKftAm1NW5</name>
		<styleUrl>#ys</styleUrl>
		<Point><coordinates>-77.0304670622,38.8962988398,0</coordinates></Point>
		<description>d2amdhggrspxsl.cloudfront.net/s3vids/pnYKftAm1NW5.converted.mp4</description>
	      </Placemark>
		

      <Placemark>
	<styleUrl>#sd</styleUrl>
        <name>pqw9ecZyoD5k</name>
        <Point><coordinates>-77.0314411931,38.8958607466,0</coordinates></Point>
      </Placemark>
	

	      <Placemark>
		<name>prb3609Bx5BJ</name>
		<styleUrl>#rs</styleUrl>
		<Point><coordinates>-77.0403083658,38.8922259889,0</coordinates></Point>
		<description>d2hxwnssq7ss7g.cloudfront.net/prb3609Bx5BJ_cvt.mp4</description>
	      </Placemark>
		

	      <Placemark>
		<name>pyIYYPfceFx1</name>
		<styleUrl>#bs</styleUrl>
		<Point><coordinates>-77.0058413635,38.8907412356,0</coordinates></Point>
		<description>d2amdhggrspxsl.cloudfront.net/s3vids/pyIYYPfceFx1.converted.mp4</description>
	      </Placemark>
		

	      <Placemark>
		<name>q4whxOr0C7fX</name>
		<styleUrl>#rs</styleUrl>
		<Point><coordinates>-77.0349110119,38.8897968946,0</coordinates></Point>
		<description>d2amdhggrspxsl.cloudfront.net/s3vids/q4whxOr0C7fX.converted.mp4</description>
	      </Placemark>
		

      <Placemark>
	<styleUrl>#sd</styleUrl>
        <name>qGwtu6qUHfjy</name>
        <Point><coordinates>-77.0104294162,38.8900557326,0</coordinates></Point>
      </Placemark>
	

	      <Placemark>
		<name>qP56A9uC1Nzf</name>
		<styleUrl>#gs</styleUrl>
		<Point><coordinates>-77.0108519058,38.8792303706,0</coordinates></Point>
		<description>d2amdhggrspxsl.cloudfront.net/s3vids/qP56A9uC1Nzf.converted.mp4</description>
	      </Placemark>
		

      <Placemark>
	<styleUrl>#sd</styleUrl>
        <name>qt23NEdtnK7a</name>
        <Point><coordinates>-77.0057018041,38.8902662014,0</coordinates></Point>
      </Placemark>
	

      <Placemark>
	<styleUrl>#sd</styleUrl>
        <name>qu0N5hTntCnU</name>
        <Point><coordinates>-77.0199699347,38.9286046767,0</coordinates></Point>
      </Placemark>
	

      <Placemark>
	<styleUrl>#sd</styleUrl>
        <name>rELKkRc7k9H5</name>
        <Point><coordinates>-77.0296316256,38.8959411692,0</coordinates></Point>
      </Placemark>
	

      <Placemark>
	<styleUrl>#sd</styleUrl>
        <name>rOZdCrZOfTJl</name>
        <Point><coordinates>-77.0301501365,38.8956459881,0</coordinates></Point>
      </Placemark>
	

	      <Placemark>
		<name>rmPZ2rvZSLkM</name>
		<styleUrl>#rs</styleUrl>
		<Point><coordinates>-77.0321639345,38.8961669329,0</coordinates></Point>
		<description>d2amdhggrspxsl.cloudfront.net/s3vids/rmPZ2rvZSLkM.converted.mp4</description>
	      </Placemark>
		

	      <Placemark>
		<name>sUVnmK0mW0dO</name>
		<styleUrl>#bs</styleUrl>
		<Point><coordinates>-77.035321661,38.9025776423,0</coordinates></Point>
		<description>d2amdhggrspxsl.cloudfront.net/s3vids/sUVnmK0mW0dO.converted.mp4</description>
	      </Placemark>
		

	      <Placemark>
		<name>sVQIA0vMuObz</name>
		<styleUrl>#ys</styleUrl>
		<Point><coordinates>-77.0360832334,38.8919878852,0</coordinates></Point>
		<description>d2amdhggrspxsl.cloudfront.net/s3vids/sVQIA0vMuObz.converted.mp4</description>
	      </Placemark>
		

	      <Placemark>
		<name>sZ8B9n3118xn</name>
		<styleUrl>#rs</styleUrl>
		<Point><coordinates>-77.0299199043,38.8961662304,0</coordinates></Point>
		<description>d2amdhggrspxsl.cloudfront.net/s3vids/sZ8B9n3118xn.converted.mp4</description>
	      </Placemark>
		

	      <Placemark>
		<name>sjZ0AJayr0n2</name>
		<styleUrl>#bs</styleUrl>
		<Point><coordinates>-77.0344766702,38.8885791788,0</coordinates></Point>
		<description>d2amdhggrspxsl.cloudfront.net/s3vids/sjZ0AJayr0n2.converted.mp4</description>
	      </Placemark>
		

      <Placemark>
	<styleUrl>#sd</styleUrl>
        <name>t1BBA727FN5K</name>
        <Point><coordinates>-77.0114288753,38.8921064513,0</coordinates></Point>
      </Placemark>
	

      <Placemark>
	<styleUrl>#sd</styleUrl>
        <name>tUPqUzLdXiYy</name>
        <Point><coordinates>-77.0364953748,38.9029608345,0</coordinates></Point>
      </Placemark>
	

	      <Placemark>
		<name>tXtZXqzoOoEp</name>
		<styleUrl>#bs</styleUrl>
		<Point><coordinates>-77.0314982537,38.8963242441,0</coordinates></Point>
		<description>d2amdhggrspxsl.cloudfront.net/s3vids/tXtZXqzoOoEp.converted.mp4</description>
	      </Placemark>
		

      <Placemark>
	<styleUrl>#sd</styleUrl>
        <name>tbCRTYIRUqOX</name>
        <Point><coordinates>-77.0332658464,38.8968469444,0</coordinates></Point>
      </Placemark>
	

      <Placemark>
	<styleUrl>#sd</styleUrl>
        <name>tb76lsT2Wakl</name>
        <Point><coordinates>-77.0102445724,38.8897655411,0</coordinates></Point>
      </Placemark>
	

	      <Placemark>
		<name>txk1J3w3EnxD</name>
		<styleUrl>#gs</styleUrl>
		<Point><coordinates>-77.0108239014,38.8921209796,0</coordinates></Point>
		<description>d2amdhggrspxsl.cloudfront.net/s3vids/txk1J3w3EnxD.converted.mp4</description>
	      </Placemark>
		

      <Placemark>
	<styleUrl>#sd</styleUrl>
        <name>uHilSUtJ4IQi</name>
        <Point><coordinates>-77.0198525786,38.9288021357,0</coordinates></Point>
      </Placemark>
	

	      <Placemark>
		<name>uO3OyLcDfy9p</name>
		<styleUrl>#rs</styleUrl>
		<Point><coordinates>-77.0364796278,38.8907250982,0</coordinates></Point>
		<description>d2hxwnssq7ss7g.cloudfront.net/uO3OyLcDfy9p_cvt.mp4</description>
	      </Placemark>
		

      <Placemark>
	<styleUrl>#sd</styleUrl>
        <name>uPDQ9Rsyo7AA</name>
        <Point><coordinates>-77.0243479723,38.8905303864,0</coordinates></Point>
      </Placemark>
	

	      <Placemark>
		<name>uYNb0PwARkgL</name>
		<styleUrl>#bs</styleUrl>
		<Point><coordinates>-77.0278977483,38.8967123966,0</coordinates></Point>
		<description>d2amdhggrspxsl.cloudfront.net/s3vids/uYNb0PwARkgL.converted.mp4</description>
	      </Placemark>
		

	      <Placemark>
		<name>uea75HdM5YCy</name>
		<styleUrl>#ys</styleUrl>
		<Point><coordinates>-77.0309252434,38.8959681658,0</coordinates></Point>
		<description>d2amdhggrspxsl.cloudfront.net/s3vids/uea75HdM5YCy.converted.mp4</description>
	      </Placemark>
		

	      <Placemark>
		<name>uu11kCrXZa78</name>
		<styleUrl>#rs</styleUrl>
		<Point><coordinates>-77.0108468861,38.8894334213,0</coordinates></Point>
		<description>d2hxwnssq7ss7g.cloudfront.net/uu11kCrXZa78_cvt.mp4</description>
	      </Placemark>
		

      <Placemark>
	<styleUrl>#sd</styleUrl>
        <name>uzAxHgmcOO9h</name>
        <Point><coordinates>-77.018193013,38.8786465611,0</coordinates></Point>
      </Placemark>
	

	      <Placemark>
		<name>v3UxT95zkOYb</name>
		<styleUrl>#ys</styleUrl>
		<Point><coordinates>-77.011471825,38.8920606514,0</coordinates></Point>
		<description>d2amdhggrspxsl.cloudfront.net/s3vids/v3UxT95zkOYb.converted.mp4</description>
	      </Placemark>
		

	      <Placemark>
		<name>v63BKYYYkJiU</name>
		<styleUrl>#gs</styleUrl>
		<Point><coordinates>-77.0143018989,38.8898612158,0</coordinates></Point>
		<description>d2hxwnssq7ss7g.cloudfront.net/v63BKYYYkJiU_cvt.mp4</description>
	      </Placemark>
		

      <Placemark>
	<styleUrl>#sd</styleUrl>
        <name>vN6sfCO2CYIu</name>
        <Point><coordinates>-77.0318720262,38.9020536325,0</coordinates></Point>
      </Placemark>
	

      <Placemark>
	<styleUrl>#sd</styleUrl>
        <name>vdwimQQOoumG</name>
        <Point><coordinates>-77.0312325863,38.8956889536,0</coordinates></Point>
      </Placemark>
	

      <Placemark>
	<styleUrl>#sd</styleUrl>
        <name>venxEDovbQEz</name>
        <Point><coordinates>-77.0307145282,38.896106843,0</coordinates></Point>
      </Placemark>
	

	      <Placemark>
		<name>vsQ67qg13IN8</name>
		<styleUrl>#rs</styleUrl>
		<Point><coordinates>-77.0312339871,38.8955669277,0</coordinates></Point>
		<description>d2amdhggrspxsl.cloudfront.net/s3vids/vsQ67qg13IN8.converted.mp4</description>
	      </Placemark>
		

      <Placemark>
	<styleUrl>#sd</styleUrl>
        <name>w4rAblSLoIRA</name>
        <Point><coordinates>-77.0274394302,38.8948527942,0</coordinates></Point>
      </Placemark>
	

      <Placemark>
	<styleUrl>#sd</styleUrl>
        <name>w9Ytd9MPcKic</name>
        <Point><coordinates>-77.0324069611,38.8903645157,0</coordinates></Point>
      </Placemark>
	

	      <Placemark>
		<name>wFijX2jkhwtp</name>
		<styleUrl>#gs</styleUrl>
		<Point><coordinates>-77.0340037409,38.8919372193,0</coordinates></Point>
		<description>d2hxwnssq7ss7g.cloudfront.net/wFijX2jkhwtp_cvt.mp4</description>
	      </Placemark>
		

      <Placemark>
	<styleUrl>#sd</styleUrl>
        <name>wOakONRRsFq4</name>
        <Point><coordinates>-77.0366238525,38.9002923184,0</coordinates></Point>
      </Placemark>
	

      <Placemark>
	<styleUrl>#sd</styleUrl>
        <name>wbNzvj8kq1i0</name>
        <Point><coordinates>-77.0352735546,38.9014610916,0</coordinates></Point>
      </Placemark>
	

      <Placemark>
	<styleUrl>#sd</styleUrl>
        <name>x6QX0a3oUxF7</name>
        <Point><coordinates>-77.0312612148,38.8953095305,0</coordinates></Point>
      </Placemark>
	

	      <Placemark>
		<name>xBtnebciFY2J</name>
		<styleUrl>#gs</styleUrl>
		<Point><coordinates>-77.0058321617,38.8906029678,0</coordinates></Point>
		<description>d2amdhggrspxsl.cloudfront.net/s3vids/xBtnebciFY2J.converted.mp4</description>
	      </Placemark>
		

	      <Placemark>
		<name>xREPV4bqjPPM</name>
		<styleUrl>#bs</styleUrl>
		<Point><coordinates>-77.0354383738,38.8921347525,0</coordinates></Point>
		<description>d2amdhggrspxsl.cloudfront.net/s3vids/xREPV4bqjPPM.converted.mp4</description>
	      </Placemark>
		

      <Placemark>
	<styleUrl>#sd</styleUrl>
        <name>xbzRZzo0fBJJ</name>
        <Point><coordinates>-77.031149339,38.8957458349,0</coordinates></Point>
      </Placemark>
	

      <Placemark>
	<styleUrl>#sd</styleUrl>
        <name>xcd9QTwy90u8</name>
        <Point><coordinates>-77.0328458317,38.8982336205,0</coordinates></Point>
      </Placemark>
	

      <Placemark>
	<styleUrl>#sd</styleUrl>
        <name>xwnqKGnmIyH4</name>
        <Point><coordinates>-77.011303477,38.8921227042,0</coordinates></Point>
      </Placemark>
	

	      <Placemark>
		<name>xy2JnbdsJG5q</name>
		<styleUrl>#ys</styleUrl>
		<Point><coordinates>-77.0101352336,38.8898270853,0</coordinates></Point>
		<description>d2hxwnssq7ss7g.cloudfront.net/xy2JnbdsJG5q_cvt.mp4</description>
	      </Placemark>
		

      <Placemark>
	<styleUrl>#sd</styleUrl>
        <name>yGrjHR5W33gR</name>
        <Point><coordinates>-77.0242203511,38.8897783796,0</coordinates></Point>
      </Placemark>
	

	      <Placemark>
		<name>ySO9aSEvs0Fx</name>
		<styleUrl>#ys</styleUrl>
		<Point><coordinates>-77.0100435211,38.8898676142,0</coordinates></Point>
		<description>d2amdhggrspxsl.cloudfront.net/s3vids/ySO9aSEvs0Fx.converted.mp4</description>
	      </Placemark>
		

	      <Placemark>
		<name>yVEOydyEobKU</name>
		<styleUrl>#rs</styleUrl>
		<Point><coordinates>-77.0295077532,38.8956973628,0</coordinates></Point>
		<description>d2amdhggrspxsl.cloudfront.net/s3vids/yVEOydyEobKU.converted.mp4</description>
	      </Placemark>
		

      <Placemark>
	<styleUrl>#sd</styleUrl>
        <name>yhwj3W6hlWUL</name>
        <Point><coordinates>-77.0059645967,38.8904419069,0</coordinates></Point>
      </Placemark>
	

      <Placemark>
	<styleUrl>#sd</styleUrl>
        <name>yvWDEQeC0dlx</name>
        <Point><coordinates>-77.029629365,38.8963048486,0</coordinates></Point>
      </Placemark>
	

	      <Placemark>
		<name>z1Dd4eQWsblX</name>
		<styleUrl>#gs</styleUrl>
		<Point><coordinates>-77.0365169836,38.891740848,0</coordinates></Point>
		<description>d2amdhggrspxsl.cloudfront.net/s3vids/z1Dd4eQWsblX.converted.mp4</description>
	      </Placemark>
		

	      <Placemark>
		<name>z32a3bWM4IU5</name>
		<styleUrl>#ys</styleUrl>
		<Point><coordinates>-77.0109247718,38.8902329696,0</coordinates></Point>
		<description>d2hxwnssq7ss7g.cloudfront.net/z32a3bWM4IU5_cvt.mp4</description>
	      </Placemark>
		

      <Placemark>
	<styleUrl>#sd</styleUrl>
        <name>z5k3KbsVWe0V</name>
        <Point><coordinates>-77.0200492595,38.8929435094,0</coordinates></Point>
      </Placemark>
	

      <Placemark>
	<styleUrl>#sd</styleUrl>
        <name>zRtDzo7WPrrA</name>
        <Point><coordinates>-77.0314290447,38.8958363646,0</coordinates></Point>
      </Placemark>
	

	      <Placemark>
		<name>zjoAIajvC3KO</name>
		<styleUrl>#rs</styleUrl>
		<Point><coordinates>-77.0318470222,38.9044902219,0</coordinates></Point>
		<description>d2amdhggrspxsl.cloudfront.net/s3vids/zjoAIajvC3KO.converted.mp4</description>
	      </Placemark>
		

	      <Placemark>
		<name>zs0EhDII1k3D</name>
		<styleUrl>#rs</styleUrl>
		<Point><coordinates>-77.0313700874,38.8958860536,0</coordinates></Point>
		<description>d2amdhggrspxsl.cloudfront.net/s3vids/zs0EhDII1k3D.converted.mp4</description>
	      </Placemark>
		

	      <Placemark>
		<name>zvhAF87Dreod</name>
		<styleUrl>#rs</styleUrl>
		<Point><coordinates>-77.0302541253,38.8958693854,0</coordinates></Point>
		<description>d2amdhggrspxsl.cloudfront.net/s3vids/zvhAF87Dreod.converted.mp4</description>
	      </Placemark>
		

      <Placemark>
	<styleUrl>#sd</styleUrl>
        <name>0EG7IUYy1Vs5</name>
        <Point><coordinates>-77.006578233,38.891932925,0</coordinates></Point>
      </Placemark>
	

	      <Placemark>
		<name>1BDzt8hvBi1t</name>
		<styleUrl>#ys</styleUrl>
		<Point><coordinates>-77.0370609595,38.8921688594,0</coordinates></Point>
		<description>d2amdhggrspxsl.cloudfront.net/s3vids/1BDzt8hvBi1t.converted.mp4</description>
	      </Placemark>
		

	      <Placemark>
		<name>1RPmgWDAIuve</name>
		<styleUrl>#bs</styleUrl>
		<Point><coordinates>-77.0290720813,38.8962782386,0</coordinates></Point>
		<description>d2amdhggrspxsl.cloudfront.net/s3vids/1RPmgWDAIuve.converted.mp4</description>
	      </Placemark>
		

      <Placemark>
	<styleUrl>#sd</styleUrl>
        <name>1a7zUX6I32zJ</name>
        <Point><coordinates>-77.0319578727,38.8958038818,0</coordinates></Point>
      </Placemark>
	

      <Placemark>
	<styleUrl>#sd</styleUrl>
        <name>1sOo2OmBPUFp</name>
        <Point><coordinates>-77.0447765915,38.8828471012,0</coordinates></Point>
      </Placemark>
	

      <Placemark>
	<styleUrl>#sd</styleUrl>
        <name>1weMBnTsMDtH</name>
        <Point><coordinates>-77.0057346698,38.8908098197,0</coordinates></Point>
      </Placemark>
	

	      <Placemark>
		<name>26ewzKJt7rKx</name>
		<styleUrl>#ys</styleUrl>
		<Point><coordinates>-77.0283276814,38.896169227,0</coordinates></Point>
		<description>d2amdhggrspxsl.cloudfront.net/s3vids/26ewzKJt7rKx.converted.mp4</description>
	      </Placemark>
		

	      <Placemark>
		<name>2SYR2Wjra3ic</name>
		<styleUrl>#bs</styleUrl>
		<Point><coordinates>-77.011585201,38.8900336967,0</coordinates></Point>
		<description>d2hxwnssq7ss7g.cloudfront.net/2SYR2Wjra3ic_cvt.mp4</description>
	      </Placemark>
		

	      <Placemark>
		<name>2bujYLrW7vAX</name>
		<styleUrl>#gs</styleUrl>
		<Point><coordinates>-77.0105654204,38.8905638165,0</coordinates></Point>
		<description>d2amdhggrspxsl.cloudfront.net/s3vids/2bujYLrW7vAX.converted.mp4</description>
	      </Placemark>
		

	      <Placemark>
		<name>38HXEQKtodCj</name>
		<styleUrl>#rs</styleUrl>
		<Point><coordinates>-77.0302322552,38.8957359929,0</coordinates></Point>
		<description>d2amdhggrspxsl.cloudfront.net/s3vids/38HXEQKtodCj.converted.mp4</description>
	      </Placemark>
		

      <Placemark>
	<styleUrl>#sd</styleUrl>
        <name>3ViaXA7t2cYc</name>
        <Point><coordinates>-77.0101775551,38.8895502368,0</coordinates></Point>
      </Placemark>
	

      <Placemark>
	<styleUrl>#sd</styleUrl>
        <name>3ihTDHpLMAQ2</name>
        <Point><coordinates>-77.0318692477,38.8953607588,0</coordinates></Point>
      </Placemark>
	

      <Placemark>
	<styleUrl>#sd</styleUrl>
        <name>3pzrc2F2Rr0q</name>
        <Point><coordinates>-77.0144413175,38.8923926259,0</coordinates></Point>
      </Placemark>
	

      <Placemark>
	<styleUrl>#sd</styleUrl>
        <name>3r2OpqS2ghQX</name>
        <Point><coordinates>-77.0275746268,38.8961616026,0</coordinates></Point>
      </Placemark>
	

	      <Placemark>
		<name>44VAasWbJ4Bh</name>
		<styleUrl>#gs</styleUrl>
		<Point><coordinates>-77.0080016677,38.8899681234,0</coordinates></Point>
		<description>d2hxwnssq7ss7g.cloudfront.net/44VAasWbJ4Bh_cvt.mp4</description>
	      </Placemark>
		

      <Placemark>
	<styleUrl>#sd</styleUrl>
        <name>4aoOZhGTjZOT</name>
        <Point><coordinates>-77.032101851,38.8962707857,0</coordinates></Point>
      </Placemark>
	

	      <Placemark>
		<name>4hdNlRik5Pvp</name>
		<styleUrl>#ys</styleUrl>
		<Point><coordinates>-77.0324787011,38.8998553494,0</coordinates></Point>
		<description>d2amdhggrspxsl.cloudfront.net/s3vids/4hdNlRik5Pvp.converted.mp4</description>
	      </Placemark>
		

	      <Placemark>
		<name>4nZvifrR6Gb5</name>
		<styleUrl>#gs</styleUrl>
		<Point><coordinates>-77.0095716305,38.8905410983,0</coordinates></Point>
		<description>https://www.youtube.com/embed/s9MT76v7RiM</description>
	      </Placemark>
		

	      <Placemark>
		<name>4yeQyP2U1uvJ</name>
		<styleUrl>#ys</styleUrl>
		<Point><coordinates>-77.031275825,38.8959845141,0</coordinates></Point>
		<description>d2amdhggrspxsl.cloudfront.net/s3vids/4yeQyP2U1uvJ.converted.mp4</description>
	      </Placemark>
		

	      <Placemark>
		<name>55IZysHw38wO</name>
		<styleUrl>#gs</styleUrl>
		<Point><coordinates>-77.0101763291,38.8899219828,0</coordinates></Point>
		<description>https://www.youtube.com/embed/JaD8DcKBFr8</description>
	      </Placemark>
		

	      <Placemark>
		<name>5GIdUYtOQZvC</name>
		<styleUrl>#ys</styleUrl>
		<Point><coordinates>-77.0340295006,38.8911292131,0</coordinates></Point>
		<description>d2amdhggrspxsl.cloudfront.net/s3vids/5GIdUYtOQZvC.converted.mp4</description>
	      </Placemark>
		

	      <Placemark>
		<name>5Q6ZwWfh6O2c</name>
		<styleUrl>#ys</styleUrl>
		<Point><coordinates>-77.0307757386,38.8958879569,0</coordinates></Point>
		<description>d2hxwnssq7ss7g.cloudfront.net/5Q6ZwWfh6O2c_cvt.mp4</description>
	      </Placemark>
		

      <Placemark>
	<styleUrl>#sd</styleUrl>
        <name>5VlhibMfm0Me</name>
        <Point><coordinates>-77.0335272346,38.897025091,0</coordinates></Point>
      </Placemark>
	

	      <Placemark>
		<name>5XnrzvP3TPee</name>
		<styleUrl>#ys</styleUrl>
		<Point><coordinates>-77.0335817645,38.8942912487,0</coordinates></Point>
		<description>d2hxwnssq7ss7g.cloudfront.net/5XnrzvP3TPee_cvt.mp4</description>
	      </Placemark>
		

	      <Placemark>
		<name>5an2kTUFQs2t</name>
		<styleUrl>#bs</styleUrl>
		<Point><coordinates>-77.0087993245,38.8899644361,0</coordinates></Point>
		<description>https://www.youtube.com/embed/gylDJVghdbY</description>
	      </Placemark>
		

      <Placemark>
	<styleUrl>#sd</styleUrl>
        <name>6LqbCTY04h2S</name>
        <Point><coordinates>-77.031361569,38.8959670186,0</coordinates></Point>
      </Placemark>
	

      <Placemark>
	<styleUrl>#sd</styleUrl>
        <name>6P3y0gnk2sZc</name>
        <Point><coordinates>-77.0351772208,38.8911250041,0</coordinates></Point>
      </Placemark>
	

	      <Placemark>
		<name>6ky2NpAvAjt6</name>
		<styleUrl>#ys</styleUrl>
		<Point><coordinates>-77.024031861,38.8939957998,0</coordinates></Point>
		<description>d2amdhggrspxsl.cloudfront.net/s3vids/6ky2NpAvAjt6.converted.mp4</description>
	      </Placemark>
		

      <Placemark>
	<styleUrl>#sd</styleUrl>
        <name>71qNiDmHjR7j</name>
        <Point><coordinates>-77.0347920913,38.8888753555,0</coordinates></Point>
      </Placemark>
	

	      <Placemark>
		<name>73zMEInBFuro</name>
		<styleUrl>#gs</styleUrl>
		<Point><coordinates>-77.0311312153,38.8960651382,0</coordinates></Point>
		<description>d2hxwnssq7ss7g.cloudfront.net/73zMEInBFuro_cvt.mp4</description>
	      </Placemark>
		

	      <Placemark>
		<name>7Fu9YJVZmNkj</name>
		<styleUrl>#rs</styleUrl>
		<Point><coordinates>-77.0123439089,38.8905482317,0</coordinates></Point>
		<description>d2amdhggrspxsl.cloudfront.net/s3vids/7Fu9YJVZmNkj.converted.mp4</description>
	      </Placemark>
		

      <Placemark>
	<styleUrl>#sd</styleUrl>
        <name>7Gck0rY2zZJO</name>
        <Point><coordinates>-77.0335292886,38.8969049793,0</coordinates></Point>
      </Placemark>
	

	      <Placemark>
		<name>7dlSyXDWtlyA</name>
		<styleUrl>#bs</styleUrl>
		<Point><coordinates>-77.0101343527,38.8901175113,0</coordinates></Point>
		<description>d2hxwnssq7ss7g.cloudfront.net/7dlSyXDWtlyA_cvt.mp4</description>
	      </Placemark>
		

	      <Placemark>
		<name>7fckI1220tbu</name>
		<styleUrl>#rs</styleUrl>
		<Point><coordinates>-77.0103291148,38.8899556285,0</coordinates></Point>
		<description>https://www.youtube.com/embed/29_aiqsHO4k</description>
	      </Placemark>
		

	      <Placemark>
		<name>7lZbNvTpYzCg</name>
		<styleUrl>#bs</styleUrl>
		<Point><coordinates>-77.0367852036,38.8891247131,0</coordinates></Point>
		<description>d2amdhggrspxsl.cloudfront.net/s3vids/7lZbNvTpYzCg.converted.mp4</description>
	      </Placemark>
		

	      <Placemark>
		<name>83QmTetHJ5T5</name>
		<styleUrl>#bs</styleUrl>
		<Point><coordinates>-77.0363262878,38.8914082742,0</coordinates></Point>
		<description>d2hxwnssq7ss7g.cloudfront.net/83QmTetHJ5T5_cvt.mp4</description>
	      </Placemark>
		

	      <Placemark>
		<name>86HZgxIZSNqS</name>
		<styleUrl>#gs</styleUrl>
		<Point><coordinates>-77.0310162466,38.8957772497,0</coordinates></Point>
		<description>d2amdhggrspxsl.cloudfront.net/s3vids/86HZgxIZSNqS.converted.mp4</description>
	      </Placemark>
		

	      <Placemark>
		<name>8KdEh2A5hBi1</name>
		<styleUrl>#ys</styleUrl>
		<Point><coordinates>-77.010166839,38.8898461189,0</coordinates></Point>
		<description>d2hxwnssq7ss7g.cloudfront.net/8KdEh2A5hBi1_cvt.mp4</description>
	      </Placemark>
		

      <Placemark>
	<styleUrl>#sd</styleUrl>
        <name>8cnLPzqkhOKD</name>
        <Point><coordinates>-77.0392864095,38.896202198,0</coordinates></Point>
      </Placemark>
	

	      <Placemark>
		<name>8cSaamVcsMri</name>
		<styleUrl>#rs</styleUrl>
		<Point><coordinates>-77.009330074,38.8902820103,0</coordinates></Point>
		<description>https://www.youtube.com/embed/rUlfaPrzdag</description>
	      </Placemark>
		

	      <Placemark>
		<name>8kxVYjg5WrBo</name>
		<styleUrl>#gs</styleUrl>
		<Point><coordinates>-77.0309309982,38.8956760187,0</coordinates></Point>
		<description>d2hxwnssq7ss7g.cloudfront.net/8kxVYjg5WrBo_cvt.mp4</description>
	      </Placemark>
		

      <Placemark>
	<styleUrl>#sd</styleUrl>
        <name>8sI3e6yy30eh</name>
        <Point><coordinates>-77.0059277419,38.8905883649,0</coordinates></Point>
      </Placemark>
	

      <Placemark>
	<styleUrl>#sd</styleUrl>
        <name>902GC5jacFN4</name>
        <Point><coordinates>-77.0311553055,38.895569035,0</coordinates></Point>
      </Placemark>
	

	      <Placemark>
		<name>95tJCDO2wZkX</name>
		<styleUrl>#ys</styleUrl>
		<Point><coordinates>-77.0313718963,38.8959760672,0</coordinates></Point>
		<description>d2amdhggrspxsl.cloudfront.net/s3vids/95tJCDO2wZkX.converted.mp4</description>
	      </Placemark>
		

	      <Placemark>
		<name>9DsuarSCjv0c</name>
		<styleUrl>#bs</styleUrl>
		<Point><coordinates>-77.0310745494,38.8954490116,0</coordinates></Point>
		<description>d2amdhggrspxsl.cloudfront.net/s3vids/9DsuarSCjv0c.converted.mp4</description>
	      </Placemark>
		

	      <Placemark>
		<name>9LbRR2Z0Z122</name>
		<styleUrl>#ys</styleUrl>
		<Point><coordinates>-77.0362680586,38.8907448542,0</coordinates></Point>
		<description>d2hxwnssq7ss7g.cloudfront.net/9LbRR2Z0Z122_cvt.mp4</description>
	      </Placemark>
		

      <Placemark>
	<styleUrl>#sd</styleUrl>
        <name>9SqyFPPIxYy0</name>
        <Point><coordinates>-77.0314754573,38.8899537758,0</coordinates></Point>
      </Placemark>
	

	      <Placemark>
		<name>9YKTu0zdQL5F</name>
		<styleUrl>#rs</styleUrl>
		<Point><coordinates>-77.0111442472,38.8901232159,0</coordinates></Point>
		<description>d2hxwnssq7ss7g.cloudfront.net/9YKTu0zdQL5F_cvt.mp4</description>
	      </Placemark>
		

      <Placemark>
	<styleUrl>#sd</styleUrl>
        <name>9dW7FrFj9iK9</name>
        <Point><coordinates>-77.008576606,38.8920374507,0</coordinates></Point>
      </Placemark>
	

      <Placemark>
	<styleUrl>#sd</styleUrl>
        <name>9wqTKJG0EIF3</name>
        <Point><coordinates>-77.0313027655,38.8957793642,0</coordinates></Point>
      </Placemark>
	

      <Placemark>
	<styleUrl>#sd</styleUrl>
        <name>A5fvZX1c5AVh</name>
        <Point><coordinates>-77.0058676842,38.8910263366,0</coordinates></Point>
      </Placemark>
	

	      <Placemark>
		<name>A8Jiah39MrVY</name>
		<styleUrl>#ys</styleUrl>
		<Point><coordinates>-77.0103237736,38.8898909182,0</coordinates></Point>
		<description>d2hxwnssq7ss7g.cloudfront.net/A8Jiah39MrVY_cvt.mp4</description>
	      </Placemark>
		

	      <Placemark>
		<name>AHlDHcmD03dQ</name>
		<styleUrl>#rs</styleUrl>
		<Point><coordinates>-77.0425222509,38.856084359,0</coordinates></Point>
		<description>d2hxwnssq7ss7g.cloudfront.net/AHlDHcmD03dQ_cvt.mp4</description>
	      </Placemark>
		

	      <Placemark>
		<name>ALgpEzOj4DFZ</name>
		<styleUrl>#bs</styleUrl>
		<Point><coordinates>-77.0422564969,38.8550690427,0</coordinates></Point>
		<description>d2amdhggrspxsl.cloudfront.net/s3vids/ALgpEzOj4DFZ.converted.mp4</description>
	      </Placemark>
		

	      <Placemark>
		<name>AYijYnzI0Gbr</name>
		<styleUrl>#ys</styleUrl>
		<Point><coordinates>-77.0071342095,38.8898536604,0</coordinates></Point>
		<description>https://www.youtube.com/embed/sQ5LeskZ2WY</description>
	      </Placemark>
		

	      <Placemark>
		<name>AwME4HLA6vtW</name>
		<styleUrl>#bs</styleUrl>
		<Point><coordinates>-77.0089602088,38.8905251603,0</coordinates></Point>
		<description>https://www.youtube.com/embed/Cky2qUrM1ww</description>
	      </Placemark>
		

      <Placemark>
	<styleUrl>#sd</styleUrl>
        <name>BOOcuvXupLJl</name>
        <Point><coordinates>-77.0121675516,38.8922291605,0</coordinates></Point>
      </Placemark>
	

	      <Placemark>
		<name>BVo7j7cX5sF9</name>
		<styleUrl>#gs</styleUrl>
		<Point><coordinates>-77.0367641679,38.8917198106,0</coordinates></Point>
		<description>d2amdhggrspxsl.cloudfront.net/s3vids/BVo7j7cX5sF9.converted.mp4</description>
	      </Placemark>
		

      <Placemark>
	<styleUrl>#sd</styleUrl>
        <name>BeeKNcPavU80</name>
        <Point><coordinates>-77.028026428,38.8962543549,0</coordinates></Point>
      </Placemark>
	

	      <Placemark>
		<name>BeehvsyVPyQa</name>
		<styleUrl>#rs</styleUrl>
		<Point><coordinates>-77.0281547866,38.8952921934,0</coordinates></Point>
		<description>d2amdhggrspxsl.cloudfront.net/s3vids/BeehvsyVPyQa.converted.mp4</description>
	      </Placemark>
		

      <Placemark>
	<styleUrl>#sd</styleUrl>
        <name>Brci43iT8yMA</name>
        <Point><coordinates>-77.0322587017,38.8965168862,0</coordinates></Point>
      </Placemark>
	

	      <Placemark>
		<name>BziLuY5elmb1</name>
		<styleUrl>#bs</styleUrl>
		<Point><coordinates>-77.036459036,38.901348844,0</coordinates></Point>
		<description>d2amdhggrspxsl.cloudfront.net/s3vids/BziLuY5elmb1.converted.mp4</description>
	      </Placemark>
		

	      <Placemark>
		<name>C4IM4xTcxLWH</name>
		<styleUrl>#ys</styleUrl>
		<Point><coordinates>-77.0108730312,38.8898428568,0</coordinates></Point>
		<description>d2amdhggrspxsl.cloudfront.net/s3vids/C4IM4xTcxLWH.converted.mp4</description>
	      </Placemark>
		

      <Placemark>
	<styleUrl>#sd</styleUrl>
        <name>C6tRQmnNnLw0</name>
        <Point><coordinates>-77.0350734752,38.8918387477,0</coordinates></Point>
      </Placemark>
	

	      <Placemark>
		<name>CP1b4tGB2AOd</name>
		<styleUrl>#bs</styleUrl>
		<Point><coordinates>-77.0314728885,38.8961092005,0</coordinates></Point>
		<description>d2amdhggrspxsl.cloudfront.net/s3vids/CP1b4tGB2AOd.converted.mp4</description>
	      </Placemark>
		

	      <Placemark>
		<name>CQtHtEEczheT</name>
		<styleUrl>#bs</styleUrl>
		<Point><coordinates>-77.0151848938,38.8915138004,0</coordinates></Point>
		<description>d2amdhggrspxsl.cloudfront.net/s3vids/CQtHtEEczheT.converted.mp4</description>
	      </Placemark>
		

	      <Placemark>
		<name>CWyeMEaKCWud</name>
		<styleUrl>#bs</styleUrl>
		<Point><coordinates>-77.0363949491,38.892341174,0</coordinates></Point>
		<description>d2amdhggrspxsl.cloudfront.net/s3vids/CWyeMEaKCWud.converted.mp4</description>
	      </Placemark>
		

	      <Placemark>
		<name>CiohAUaVwOfr</name>
		<styleUrl>#ys</styleUrl>
		<Point><coordinates>-77.0361781914,38.8918390576,0</coordinates></Point>
		<description>d2amdhggrspxsl.cloudfront.net/s3vids/CiohAUaVwOfr.converted.mp4</description>
	      </Placemark>
		

      <Placemark>
	<styleUrl>#sd</styleUrl>
        <name>Cm9AtHkZ3ETV</name>
        <Point><coordinates>-77.0158835901,38.8918981866,0</coordinates></Point>
      </Placemark>
	

	      <Placemark>
		<name>Cnp8oLZN3MKt</name>
		<styleUrl>#rs</styleUrl>
		<Point><coordinates>-77.0302046699,38.8957622802,0</coordinates></Point>
		<description>d2amdhggrspxsl.cloudfront.net/s3vids/Cnp8oLZN3MKt.converted.mp4</description>
	      </Placemark>
		

      <Placemark>
	<styleUrl>#sd</styleUrl>
        <name>CpGC5Hp2a2i8</name>
        <Point><coordinates>-77.0059246,38.8904269961,0</coordinates></Point>
      </Placemark>