<?xml version="1.0" encoding="UTF-8"?>
<kml xmlns="http://www.opengis.net/kml/2.2">
  <Document>
    <name>Parler</name>
    <open>1</open>





    <Style id="ys">
      <IconStyle>
<scale>0.2</scale>
        <Icon>
          <href>http://maps.google.com/mapfiles/kml/paddle/ylw-blank-lv.png</href>
        </Icon>
      </IconStyle>
    </Style>


    <Style id="rs">
      <IconStyle>
<scale>0.6</scale>
        <Icon>
          <href>http://maps.google.com/mapfiles/kml/paddle/red-circle-lv.png</href>
        </Icon>
      </IconStyle>
      <BalloonStyle>
        <text>$[video]</text>
      </BalloonStyle>
    </Style>





      <Placemark>
	<styleUrl>#ys</styleUrl>
        <name>01Dr0cCRKUBR</name>
        <Point><coordinates>-77.0241533871,38.8938659118,0</coordinates></Point>
      </Placemark>
	

      <Placemark>
	<styleUrl>#ys</styleUrl>
        <name>01y9xayI52wn</name>
        <Point><coordinates>-77.0308780601,38.8956406134,0</coordinates></Point>
      </Placemark>
	

	      <Placemark>
		<name>0ILtbKNKST48</name>
		<styleUrl>#rs</styleUrl>
		<Point><coordinates>-77.0101668077,38.889794361,0</coordinates></Point>
		<description>d2hxwnssq7ss7g.cloudfront.net/0ILtbKNKST48_cvt.mp4</description>
	      </Placemark>
		

      <Placemark>
	<styleUrl>#ys</styleUrl>
        <name>0QH0juP06hoN</name>
        <Point><coordinates>-77.0184391877,38.8922416733,0</coordinates></Point>
      </Placemark>
	

	      <Placemark>
		<name>0RkqluQmLWCt</name>
		<styleUrl>#rs</styleUrl>
		<Point><coordinates>-77.008290543,38.8907679694,0</coordinates></Point>
		<description>https://www.youtube.com/embed/PMBv7xQgI-c</description>
	      </Placemark>
		

      <Placemark>
	<styleUrl>#ys</styleUrl>
        <name>0pHHD2IPnGI5</name>
        <Point><coordinates>-77.0365205594,38.8921581129,0</coordinates></Point>
      </Placemark>
	

      <Placemark>
	<styleUrl>#ys</styleUrl>
        <name>0wlmPQqxdTgo</name>
        <Point><coordinates>-77.03037409,38.8961466148,0</coordinates></Point>
      </Placemark>
	

      <Placemark>
	<styleUrl>#ys</styleUrl>
        <name>1Ggg3agLBmcp</name>
        <Point><coordinates>-77.0298625834,38.8956551466,0</coordinates></Point>
      </Placemark>
	

      <Placemark>
	<styleUrl>#ys</styleUrl>
        <name>1Hkd1vmLib9z</name>
        <Point><coordinates>-77.0355539471,38.8903664418,0</coordinates></Point>
      </Placemark>
	

      <Placemark>
	<styleUrl>#ys</styleUrl>
        <name>1JUL6i1sevr5</name>
        <Point><coordinates>-77.0055701417,38.8907475883,0</coordinates></Point>
      </Placemark>
	

      <Placemark>
	<styleUrl>#ys</styleUrl>
        <name>1bW4jtKW3e4h</name>
        <Point><coordinates>-77.031399872,38.8958623968,0</coordinates></Point>
      </Placemark>
	

      <Placemark>
	<styleUrl>#ys</styleUrl>
        <name>25q0ZEYP63AS</name>
        <Point><coordinates>-77.0156035599,38.8918360451,0</coordinates></Point>
      </Placemark>
	

      <Placemark>
	<styleUrl>#ys</styleUrl>
        <name>2LEhfa82rEBu</name>
        <Point><coordinates>-77.0347493231,38.9035318471,0</coordinates></Point>
      </Placemark>
	

      <Placemark>
	<styleUrl>#ys</styleUrl>
        <name>2Sg01xRSxzB4</name>
        <Point><coordinates>-77.0288564843,38.8952639107,0</coordinates></Point>
      </Placemark>
	

      <Placemark>
	<styleUrl>#ys</styleUrl>
        <name>2Yk3nUusMZ5M</name>
        <Point><coordinates>-77.0333271807,38.8916146169,0</coordinates></Point>
      </Placemark>
	

      <Placemark>
	<styleUrl>#ys</styleUrl>
        <name>2fqpw5l9SeIl</name>
        <Point><coordinates>-77.036783499,38.8921759546,0</coordinates></Point>
      </Placemark>
	

      <Placemark>
	<styleUrl>#ys</styleUrl>
        <name>2hQCSNaL2YEt</name>
        <Point><coordinates>-77.0272787408,38.897441177,0</coordinates></Point>
      </Placemark>
	

      <Placemark>
	<styleUrl>#ys</styleUrl>
        <name>3BS8LuDCIhVK</name>
        <Point><coordinates>-77.0365579934,38.9009605181,0</coordinates></Point>
      </Placemark>
	

      <Placemark>
	<styleUrl>#ys</styleUrl>
        <name>3IY0g4zJnWpx</name>
        <Point><coordinates>-77.0280512144,38.8951687092,0</coordinates></Point>
      </Placemark>
	

      <Placemark>
	<styleUrl>#ys</styleUrl>
        <name>3YKQfXNj25bC</name>
        <Point><coordinates>-77.0295477008,38.8951701858,0</coordinates></Point>
      </Placemark>
	

      <Placemark>
	<styleUrl>#ys</styleUrl>
        <name>3cQrZOxWACEC</name>
        <Point><coordinates>-77.0322023413,38.8971397685,0</coordinates></Point>
      </Placemark>
	

      <Placemark>
	<styleUrl>#ys</styleUrl>
        <name>3temc8utA9Te</name>
        <Point><coordinates>-77.0271068174,38.8962343512,0</coordinates></Point>
      </Placemark>
	

      <Placemark>
	<styleUrl>#ys</styleUrl>
        <name>47bEpiPC9H4r</name>
        <Point><coordinates>-77.0152417739,38.8910392401,0</coordinates></Point>
      </Placemark>
	

	      <Placemark>
		<name>4CgvVPwmomjo</name>
		<styleUrl>#rs</styleUrl>
		<Point><coordinates>-77.010288189,38.8899706349,0</coordinates></Point>
		<description>d2hxwnssq7ss7g.cloudfront.net/4CgvVPwmomjo_cvt.mp4</description>
	      </Placemark>
		

      <Placemark>
	<styleUrl>#ys</styleUrl>
        <name>4qusbgWURPzb</name>
        <Point><coordinates>-77.0311692313,38.8959517847,0</coordinates></Point>
      </Placemark>
	

      <Placemark>
	<styleUrl>#ys</styleUrl>
        <name>4wEIjixAAI5n</name>
        <Point><coordinates>-77.0336276791,38.8968502136,0</coordinates></Point>
      </Placemark>
	

      <Placemark>
	<styleUrl>#ys</styleUrl>
        <name>4wpTpMUzTYNA</name>
        <Point><coordinates>-77.0322432744,38.8968757105,0</coordinates></Point>
      </Placemark>
	

      <Placemark>
	<styleUrl>#ys</styleUrl>
        <name>50XYMR09ys3v</name>
        <Point><coordinates>-77.0099495275,38.890071954,0</coordinates></Point>
      </Placemark>
	

	      <Placemark>
		<name>52rqoXOfOPy5</name>
		<styleUrl>#rs</styleUrl>
		<Point><coordinates>-77.0362218241,38.8921193482,0</coordinates></Point>
		<description>d2hxwnssq7ss7g.cloudfront.net/52rqoXOfOPy5_cvt.mp4</description>
	      </Placemark>
		

	      <Placemark>
		<name>58lWitKHBAbq</name>
		<styleUrl>#rs</styleUrl>
		<Point><coordinates>-77.0105499584,38.889772463,0</coordinates></Point>
		<description>d2hxwnssq7ss7g.cloudfront.net/58lWitKHBAbq_cvt.mp4</description>
	      </Placemark>
		

      <Placemark>
	<styleUrl>#ys</styleUrl>
        <name>5KVDjj66vzRX</name>
        <Point><coordinates>-77.0058659217,38.891153378,0</coordinates></Point>
      </Placemark>
	

      <Placemark>
	<styleUrl>#ys</styleUrl>
        <name>5Yf5w5tiLIDB</name>
        <Point><coordinates>-77.0071961465,38.8900636224,0</coordinates></Point>
      </Placemark>
	

      <Placemark>
	<styleUrl>#ys</styleUrl>
        <name>5cR2GIapHuzT</name>
        <Point><coordinates>-77.0059389173,38.8906014713,0</coordinates></Point>
      </Placemark>
	

      <Placemark>
	<styleUrl>#ys</styleUrl>
        <name>5s1E8yhEKc16</name>
        <Point><coordinates>-77.0361236353,38.9005561307,0</coordinates></Point>
      </Placemark>
	

	      <Placemark>
		<name>6FY6c0d8IMjz</name>
		<styleUrl>#rs</styleUrl>
		<Point><coordinates>-77.0102603625,38.8897578377,0</coordinates></Point>
		<description>https://www.youtube.com/embed/or1L4ZVNghI</description>
	      </Placemark>
		

	      <Placemark>
		<name>6JbG6I0FrJhn</name>
		<styleUrl>#rs</styleUrl>
		<Point><coordinates>-77.0103313804,38.8897488556,0</coordinates></Point>
		<description>https://www.youtube.com/embed/V617FSr4bOw</description>
	      </Placemark>
		

      <Placemark>
	<styleUrl>#ys</styleUrl>
        <name>6ZpzglX1wItx</name>
        <Point><coordinates>-77.0371599955,38.9029624219,0</coordinates></Point>
      </Placemark>
	

      <Placemark>
	<styleUrl>#ys</styleUrl>
        <name>6dznD64SiXCZ</name>
        <Point><coordinates>-77.0302734048,38.8955858905,0</coordinates></Point>
      </Placemark>
	

      <Placemark>
	<styleUrl>#ys</styleUrl>
        <name>6nGUY8RzfMkN</name>
        <Point><coordinates>-77.0320574052,38.8970248609,0</coordinates></Point>
      </Placemark>
	

      <Placemark>
	<styleUrl>#ys</styleUrl>
        <name>76xQPekYvGcu</name>
        <Point><coordinates>-77.0167241712,38.8920566861,0</coordinates></Point>
      </Placemark>
	

	      <Placemark>
		<name>7AoOD8iXDt37</name>
		<styleUrl>#rs</styleUrl>
		<Point><coordinates>-77.0238211475,38.9023186137,0</coordinates></Point>
		<description>d2hxwnssq7ss7g.cloudfront.net/7AoOD8iXDt37_cvt.mp4</description>
	      </Placemark>
		

      <Placemark>
	<styleUrl>#ys</styleUrl>
        <name>7ZClenrfeTiu</name>
        <Point><coordinates>-77.0351288421,38.9014113955,0</coordinates></Point>
      </Placemark>
	

      <Placemark>
	<styleUrl>#ys</styleUrl>
        <name>7e31ov6hVKFs</name>
        <Point><coordinates>-77.0358241121,38.9024565881,0</coordinates></Point>
      </Placemark>
	

      <Placemark>
	<styleUrl>#ys</styleUrl>
        <name>7lEOnbsWIuS9</name>
        <Point><coordinates>-77.0296273549,38.8958149088,0</coordinates></Point>
      </Placemark>
	

      <Placemark>
	<styleUrl>#ys</styleUrl>
        <name>7n9O8ZT8uXvQ</name>
        <Point><coordinates>-77.0109686392,38.8898911244,0</coordinates></Point>
      </Placemark>
	

      <Placemark>
	<styleUrl>#ys</styleUrl>
        <name>88OgcYEctaGP</name>
        <Point><coordinates>-77.030740076,38.896077503,0</coordinates></Point>
      </Placemark>
	

	      <Placemark>
		<name>8dLyJxfRn3cI</name>
		<styleUrl>#rs</styleUrl>
		<Point><coordinates>-77.0103212106,38.8899587157,0</coordinates></Point>
		<description>d2hxwnssq7ss7g.cloudfront.net/8dLyJxfRn3cI_cvt.mp4</description>
	      </Placemark>
		

	      <Placemark>
		<name>8fGidwR3eLor</name>
		<styleUrl>#rs</styleUrl>
		<Point><coordinates>-77.0103771997,38.890584753,0</coordinates></Point>
		<description>d2hxwnssq7ss7g.cloudfront.net/8fGidwR3eLor_cvt.mp4</description>
	      </Placemark>
		

	      <Placemark>
		<name>8wZMDTyKo5Tm</name>
		<styleUrl>#rs</styleUrl>
		<Point><coordinates>-77.0110619249,38.8903994001,0</coordinates></Point>
		<description>d2hxwnssq7ss7g.cloudfront.net/8wZMDTyKo5Tm_cvt.mp4</description>
	      </Placemark>
		

      <Placemark>
	<styleUrl>#ys</styleUrl>
        <name>8zy6GOcBAV5Y</name>
        <Point><coordinates>-77.0114234152,38.8921558812,0</coordinates></Point>
      </Placemark>
	

      <Placemark>
	<styleUrl>#ys</styleUrl>
        <name>9Y3ejm8lLGFx</name>
        <Point><coordinates>-77.0270926696,38.8961652229,0</coordinates></Point>
      </Placemark>
	

      <Placemark>
	<styleUrl>#ys</styleUrl>
        <name>9quKY3UvWlvg</name>
        <Point><coordinates>-77.0108112385,38.889428685,0</coordinates></Point>
      </Placemark>
	

	      <Placemark>
		<name>A6nbSYGTQ2hW</name>
		<styleUrl>#rs</styleUrl>
		<Point><coordinates>-77.0105485466,38.8900710611,0</coordinates></Point>
		<description>d2hxwnssq7ss7g.cloudfront.net/A6nbSYGTQ2hW_cvt.mp4</description>
	      </Placemark>
		

	      <Placemark>
		<name>ACa0xxSznKol</name>
		<styleUrl>#rs</styleUrl>
		<Point><coordinates>-77.0117273006,38.8894548059,0</coordinates></Point>
		<description>d2hxwnssq7ss7g.cloudfront.net/ACa0xxSznKol_cvt.mp4</description>
	      </Placemark>
		

	      <Placemark>
		<name>AdArLzDy1ObS</name>
		<styleUrl>#rs</styleUrl>
		<Point><coordinates>-77.0102253853,38.8896528222,0</coordinates></Point>
		<description>d2hxwnssq7ss7g.cloudfront.net/AdArLzDy1ObS_cvt.mp4</description>
	      </Placemark>
		

      <Placemark>
	<styleUrl>#ys</styleUrl>
        <name>AjjEGqOgsadm</name>
        <Point><coordinates>-77.0276338356,38.8961063995,0</coordinates></Point>
      </Placemark>
	

      <Placemark>
	<styleUrl>#ys</styleUrl>
        <name>AqB0wJVAq4uE</name>
        <Point><coordinates>-77.0309393076,38.8954018611,0</coordinates></Point>
      </Placemark>
	

      <Placemark>
	<styleUrl>#ys</styleUrl>
        <name>B0FxCurP0DbS</name>
        <Point><coordinates>-77.0102233264,38.8902158122,0</coordinates></Point>
      </Placemark>
	

	      <Placemark>
		<name>BKzCTrgUan1v</name>
		<styleUrl>#rs</styleUrl>
		<Point><coordinates>-77.0104750418,38.8897425367,0</coordinates></Point>
		<description>d2hxwnssq7ss7g.cloudfront.net/BKzCTrgUan1v_cvt.mp4</description>
	      </Placemark>
		

      <Placemark>
	<styleUrl>#ys</styleUrl>
        <name>BWRADURlezk0</name>
        <Point><coordinates>-77.0262678691,38.9001503345,0</coordinates></Point>
      </Placemark>
	

      <Placemark>
	<styleUrl>#ys</styleUrl>
        <name>BsNFnOjBvcLC</name>
        <Point><coordinates>-77.0354145821,38.8783159469,0</coordinates></Point>
      </Placemark>
	

	      <Placemark>
		<name>C0iVFlxMD0xd</name>
		<styleUrl>#rs</styleUrl>
		<Point><coordinates>-77.0365493056,38.8918718694,0</coordinates></Point>
		<description>d2hxwnssq7ss7g.cloudfront.net/C0iVFlxMD0xd_cvt.mp4</description>
	      </Placemark>
		

      <Placemark>
	<styleUrl>#ys</styleUrl>
        <name>C5u7WZz0ibfe</name>
        <Point><coordinates>-77.0102678033,38.8895502394,0</coordinates></Point>
      </Placemark>
	

	      <Placemark>
		<name>CC0iavGPRx9W</name>
		<styleUrl>#rs</styleUrl>
		<Point><coordinates>-77.0360758452,38.8920432913,0</coordinates></Point>
		<description>d2hxwnssq7ss7g.cloudfront.net/CC0iavGPRx9W_cvt.mp4</description>
	      </Placemark>
		

	      <Placemark>
		<name>CE7LhOl22vJ9</name>
		<styleUrl>#rs</styleUrl>
		<Point><coordinates>-77.0076734761,38.8899859812,0</coordinates></Point>
		<description>https://www.youtube.com/embed/cO-Pp7mtT8Y</description>
	      </Placemark>
		

      <Placemark>
	<styleUrl>#ys</styleUrl>
        <name>CGd1rYJUBr2m</name>
        <Point><coordinates>-77.0356283504,38.9024507871,0</coordinates></Point>
      </Placemark>
	

	      <Placemark>
		<name>CNrWBNcfCr8w</name>
		<styleUrl>#rs</styleUrl>
		<Point><coordinates>-77.0103474514,38.8903749664,0</coordinates></Point>
		<description>d2hxwnssq7ss7g.cloudfront.net/CNrWBNcfCr8w_cvt.mp4</description>
	      </Placemark>
		

      <Placemark>
	<styleUrl>#ys</styleUrl>
        <name>CcnyVlqb33aV</name>
        <Point><coordinates>-77.005955521,38.8910229964,0</coordinates></Point>
      </Placemark>
	

      <Placemark>
	<styleUrl>#ys</styleUrl>
        <name>CndSxof29TL1</name>
        <Point><coordinates>-77.0307469086,38.8960744237,0</coordinates></Point>
      </Placemark>
	

      <Placemark>
	<styleUrl>#ys</styleUrl>
        <name>CxuimH5Nb5do</name>
        <Point><coordinates>-77.0370555759,38.8908231001,0</coordinates></Point>
      </Placemark>
	

      <Placemark>
	<styleUrl>#ys</styleUrl>
        <name>D15i7CKshZFG</name>
        <Point><coordinates>-77.0363540754,38.9003266293,0</coordinates></Point>
      </Placemark>
	

      <Placemark>
	<styleUrl>#ys</styleUrl>
        <name>D7H3UunIZa3z</name>
        <Point><coordinates>-77.0319542968,38.8961267233,0</coordinates></Point>
      </Placemark>
	

      <Placemark>
	<styleUrl>#ys</styleUrl>
        <name>DRd7Blx66gF1</name>
        <Point><coordinates>-77.0286236509,38.8952161164,0</coordinates></Point>
      </Placemark>
	

      <Placemark>
	<styleUrl>#ys</styleUrl>
        <name>DSL96z86eN5m</name>
        <Point><coordinates>-77.0113496744,38.8921321209,0</coordinates></Point>
      </Placemark>
	

      <Placemark>
	<styleUrl>#ys</styleUrl>
        <name>DVteqai4kE6y</name>
        <Point><coordinates>-77.0304867207,38.8956742942,0</coordinates></Point>
      </Placemark>
	

      <Placemark>
	<styleUrl>#ys</styleUrl>
        <name>Dkcn2D7Hnrcc</name>
        <Point><coordinates>-77.0298685442,38.8955910683,0</coordinates></Point>
      </Placemark>
	

      <Placemark>
	<styleUrl>#ys</styleUrl>
        <name>Dr91Sy9JPaqz</name>
        <Point><coordinates>-77.0119130713,38.8903255961,0</coordinates></Point>
      </Placemark>
	

      <Placemark>
	<styleUrl>#ys</styleUrl>
        <name>E0BVsEwYiXP8</name>
        <Point><coordinates>-77.0311695033,38.8960519791,0</coordinates></Point>
      </Placemark>
	

      <Placemark>
	<styleUrl>#ys</styleUrl>
        <name>E3qbcSs7VcC4</name>
        <Point><coordinates>-77.0318593811,38.895561945,0</coordinates></Point>
      </Placemark>
	

	      <Placemark>
		<name>EAQMiCrIpltl</name>
		<styleUrl>#rs</styleUrl>
		<Point><coordinates>-77.0364443635,38.89373681,0</coordinates></Point>
		<description>d2hxwnssq7ss7g.cloudfront.net/EAQMiCrIpltl_cvt.mp4</description>
	      </Placemark>
		

	      <Placemark>
		<name>EFc5cWENHs5F</name>
		<styleUrl>#rs</styleUrl>
		<Point><coordinates>-77.0390657689,38.899653215,0</coordinates></Point>
		<description>d2hxwnssq7ss7g.cloudfront.net/EFc5cWENHs5F_cvt.mp4</description>
	      </Placemark>
		

	      <Placemark>
		<name>EGrFrkDN88km</name>
		<styleUrl>#rs</styleUrl>
		<Point><coordinates>-77.0109183475,38.8898207936,0</coordinates></Point>
		<description>d2hxwnssq7ss7g.cloudfront.net/EGrFrkDN88km_cvt.mp4</description>
	      </Placemark>
		

      <Placemark>
	<styleUrl>#ys</styleUrl>
        <name>ER1nJCKjJCFA</name>
        <Point><coordinates>-77.0058426212,38.890275116,0</coordinates></Point>
      </Placemark>
	

      <Placemark>
	<styleUrl>#ys</styleUrl>
        <name>ESumQUxBrK83</name>
        <Point><coordinates>-77.02765615,38.8904236161,0</coordinates></Point>
      </Placemark>
	

      <Placemark>
	<styleUrl>#ys</styleUrl>
        <name>EsFY8ZpmxFYr</name>
        <Point><coordinates>-77.0058044725,38.8903370162,0</coordinates></Point>
      </Placemark>
	

      <Placemark>
	<styleUrl>#ys</styleUrl>
        <name>FQtEYfBZRdrm</name>
        <Point><coordinates>-77.0272449997,38.8962374267,0</coordinates></Point>
      </Placemark>
	

      <Placemark>
	<styleUrl>#ys</styleUrl>
        <name>FYlBctOhdY6q</name>
        <Point><coordinates>-77.005613692,38.8904262258,0</coordinates></Point>
      </Placemark>
	

      <Placemark>
	<styleUrl>#ys</styleUrl>
        <name>Fb6N8jXHDAFg</name>
        <Point><coordinates>-77.0157352702,38.8905427747,0</coordinates></Point>
      </Placemark>
	

      <Placemark>
	<styleUrl>#ys</styleUrl>
        <name>GC102pwJuxlt</name>
        <Point><coordinates>-77.0168450111,38.911072565,0</coordinates></Point>
      </Placemark>
	

      <Placemark>
	<styleUrl>#ys</styleUrl>
        <name>GQSiMdVA83Bt</name>
        <Point><coordinates>-77.014453379,38.8921259134,0</coordinates></Point>
      </Placemark>
	

      <Placemark>
	<styleUrl>#ys</styleUrl>
        <name>GSMrQj3U0qEO</name>
        <Point><coordinates>-77.031374514,38.8958469698,0</coordinates></Point>
      </Placemark>
	

      <Placemark>
	<styleUrl>#ys</styleUrl>
        <name>GVqtVyFGYKxE</name>
        <Point><coordinates>-77.0089685504,38.8955510557,0</coordinates></Point>
      </Placemark>
	

      <Placemark>
	<styleUrl>#ys</styleUrl>
        <name>GjCNlWdg723v</name>
        <Point><coordinates>-77.0200209758,38.9285584803,0</coordinates></Point>
      </Placemark>
	

      <Placemark>
	<styleUrl>#ys</styleUrl>
        <name>GpbZAAgMuo6a</name>
        <Point><coordinates>-77.0303430222,38.8962354975,0</coordinates></Point>
      </Placemark>
	

      <Placemark>
	<styleUrl>#ys</styleUrl>
        <name>GvSfsVukvld7</name>
        <Point><coordinates>-77.0129226786,38.8909152124,0</coordinates></Point>
      </Placemark>
	

      <Placemark>
	<styleUrl>#ys</styleUrl>
        <name>H6EqfmJVPSDC</name>
        <Point><coordinates>-77.0125207558,38.8921582317,0</coordinates></Point>
      </Placemark>
	

	      <Placemark>
		<name>HErrRC01EIav</name>
		<styleUrl>#rs</styleUrl>
		<Point><coordinates>-77.0093333323,38.8904058076,0</coordinates></Point>
		<description>d2hxwnssq7ss7g.cloudfront.net/HErrRC01EIav_cvt.mp4</description>
	      </Placemark>
		

	      <Placemark>
		<name>HS34fpbzqg2b</name>
		<styleUrl>#rs</styleUrl>
		<Point><coordinates>-77.0079437694,38.8906763129,0</coordinates></Point>
		<description>https://www.youtube.com/embed/C-ZPAGrhw6I</description>
	      </Placemark>
		

	      <Placemark>
		<name>HX07G51QKPEx</name>
		<styleUrl>#rs</styleUrl>
		<Point><coordinates>-77.0103712981,38.8900887832,0</coordinates></Point>
		<description>d2hxwnssq7ss7g.cloudfront.net/HX07G51QKPEx_cvt.mp4</description>
	      </Placemark>
		

      <Placemark>
	<styleUrl>#ys</styleUrl>
        <name>HZ2kN1ny5lyY</name>
        <Point><coordinates>-77.0302276521,38.8961100791,0</coordinates></Point>
      </Placemark>
	

      <Placemark>
	<styleUrl>#ys</styleUrl>
        <name>I7XN5Ojzw20d</name>
        <Point><coordinates>-77.0059890975,38.8904716026,0</coordinates></Point>
      </Placemark>
	

      <Placemark>
	<styleUrl>#ys</styleUrl>
        <name>IKw27C8zdUHH</name>
        <Point><coordinates>-77.03188324,38.8965757451,0</coordinates></Point>
      </Placemark>
	

	      <Placemark>
		<name>IOqrjPvbQx6s</name>
		<styleUrl>#rs</styleUrl>
		<Point><coordinates>-77.0102263113,38.8897137676,0</coordinates></Point>
		<description>https://www.youtube.com/embed/o2titsRYSkg</description>
	      </Placemark>
		

      <Placemark>
	<styleUrl>#ys</styleUrl>
        <name>Iy08Wc2XFNqJ</name>
        <Point><coordinates>-77.0146222689,38.8920198425,0</coordinates></Point>
      </Placemark>
	

      <Placemark>
	<styleUrl>#ys</styleUrl>
        <name>J9U6khb56IEE</name>
        <Point><coordinates>-77.0335344026,38.8967469272,0</coordinates></Point>
      </Placemark>
	

      <Placemark>
	<styleUrl>#ys</styleUrl>
        <name>JAzgtaTITPPG</name>
        <Point><coordinates>-77.0364205361,38.8903179828,0</coordinates></Point>
      </Placemark>
	

      <Placemark>
	<styleUrl>#ys</styleUrl>
        <name>JXTVMH2oGvMH</name>
        <Point><coordinates>-77.029636222,38.895243698,0</coordinates></Point>
      </Placemark>
	

      <Placemark>
	<styleUrl>#ys</styleUrl>
        <name>JtwM30g8Rg1Q</name>
        <Point><coordinates>-77.0298699419,38.8918924759,0</coordinates></Point>
      </Placemark>
	

      <Placemark>
	<styleUrl>#ys</styleUrl>
        <name>KBi2LV5ZkDfH</name>
        <Point><coordinates>-77.0173959786,38.8921634741,0</coordinates></Point>
      </Placemark>
	

      <Placemark>
	<styleUrl>#ys</styleUrl>
        <name>KGBOHrlAZQoG</name>
        <Point><coordinates>-77.0319314515,38.8966089371,0</coordinates></Point>
      </Placemark>
	

      <Placemark>
	<styleUrl>#ys</styleUrl>
        <name>KR2Z4glZQhgB</name>
        <Point><coordinates>-77.0307679642,38.8960903907,0</coordinates></Point>
      </Placemark>
	

      <Placemark>
	<styleUrl>#ys</styleUrl>
        <name>KUT3TiOVYh7E</name>
        <Point><coordinates>-77.0060240513,38.8901564972,0</coordinates></Point>
      </Placemark>
	

	      <Placemark>
		<name>Kmm034ViQJyl</name>
		<styleUrl>#rs</styleUrl>
		<Point><coordinates>-77.0106621871,38.8897996142,0</coordinates></Point>
		<description>https://www.youtube.com/embed/HYvH2XiPuLU</description>
	      </Placemark>
		

      <Placemark>
	<styleUrl>#ys</styleUrl>
        <name>Ko62XBUyaYLE</name>
        <Point><coordinates>-77.0271725975,38.894645141,0</coordinates></Point>
      </Placemark>
	

      <Placemark>
	<styleUrl>#ys</styleUrl>
        <name>L5LAErfLatjG</name>
        <Point><coordinates>-77.0474811696,38.8964785968,0</coordinates></Point>
      </Placemark>
	

      <Placemark>
	<styleUrl>#ys</styleUrl>
        <name>LPbCzY5Zbb0P</name>
        <Point><coordinates>-77.0058863585,38.8907738727,0</coordinates></Point>
      </Placemark>
	

      <Placemark>
	<styleUrl>#ys</styleUrl>
        <name>LY04YlwJ3JQ1</name>
        <Point><coordinates>-77.0182259776,38.8786534723,0</coordinates></Point>
      </Placemark>
	

      <Placemark>
	<styleUrl>#ys</styleUrl>
        <name>LcorKZMPtimA</name>
        <Point><coordinates>-77.0311673343,38.8955947707,0</coordinates></Point>
      </Placemark>
	

      <Placemark>
	<styleUrl>#ys</styleUrl>
        <name>LdURLP869BXI</name>
        <Point><coordinates>-77.0370581581,38.8914495618,0</coordinates></Point>
      </Placemark>
	

	      <Placemark>
		<name>LhPiDTMhUSGL</name>
		<styleUrl>#rs</styleUrl>
		<Point><coordinates>-77.0100144876,38.8899269927,0</coordinates></Point>
		<description>https://www.youtube.com/embed/UfIlXpLsY1g</description>
	      </Placemark>
		

      <Placemark>
	<styleUrl>#ys</styleUrl>
        <name>LoAokLIYkaGO</name>
        <Point><coordinates>-77.0315615674,38.8959991313,0</coordinates></Point>
      </Placemark>
	

      <Placemark>
	<styleUrl>#ys</styleUrl>
        <name>M2LYglVwxNYk</name>
        <Point><coordinates>-77.0143782785,38.8920807054,0</coordinates></Point>
      </Placemark>
	

      <Placemark>
	<styleUrl>#ys</styleUrl>
        <name>M5c4K0gVzZ1C</name>
        <Point><coordinates>-77.0311763395,38.895843893,0</coordinates></Point>
      </Placemark>
	

	      <Placemark>
		<name>MDACiOMgge1Z</name>
		<styleUrl>#rs</styleUrl>
		<Point><coordinates>-77.0353747132,38.8909872379,0</coordinates></Point>
		<description>d2hxwnssq7ss7g.cloudfront.net/MDACiOMgge1Z_cvt.mp4</description>
	      </Placemark>
		

      <Placemark>
	<styleUrl>#ys</styleUrl>
        <name>MYo7OWJJq6qo</name>
        <Point><coordinates>-77.0296232963,38.8953158399,0</coordinates></Point>
      </Placemark>
	

      <Placemark>
	<styleUrl>#ys</styleUrl>
        <name>Mij3YHwD8t0t</name>
        <Point><coordinates>-77.006216961,38.8918245241,0</coordinates></Point>
      </Placemark>
	

      <Placemark>
	<styleUrl>#ys</styleUrl>
        <name>Mlpi0bAEnCXG</name>
        <Point><coordinates>-77.0285345829,38.8949470582,0</coordinates></Point>
      </Placemark>
	

      <Placemark>
	<styleUrl>#ys</styleUrl>
        <name>Mth2z4B2v3ko</name>
        <Point><coordinates>-77.0060016846,38.8918391703,0</coordinates></Point>
      </Placemark>
	

      <Placemark>
	<styleUrl>#ys</styleUrl>
        <name>NHruwijUAU0M</name>
        <Point><coordinates>-77.0117666577,38.8933542021,0</coordinates></Point>
      </Placemark>
	

      <Placemark>
	<styleUrl>#ys</styleUrl>
        <name>NU3SacLstfnA</name>
        <Point><coordinates>-77.0311438556,38.8960363805,0</coordinates></Point>
      </Placemark>
	

      <Placemark>
	<styleUrl>#ys</styleUrl>
        <name>Nw6JBnPVh0Y8</name>
        <Point><coordinates>-77.0315654754,38.8960930386,0</coordinates></Point>
      </Placemark>
	

      <Placemark>
	<styleUrl>#ys</styleUrl>
        <name>O04HrXvFcfvg</name>
        <Point><coordinates>-77.0320511388,38.8963286239,0</coordinates></Point>
      </Placemark>
	

	      <Placemark>
		<name>O4kgdyn627q4</name>
		<styleUrl>#rs</styleUrl>
		<Point><coordinates>-77.0352352271,38.9078026639,0</coordinates></Point>
		<description>d2hxwnssq7ss7g.cloudfront.net/O4kgdyn627q4_cvt.mp4</description>
	      </Placemark>
		

      <Placemark>
	<styleUrl>#ys</styleUrl>
        <name>O6HbowV8150S</name>
        <Point><coordinates>-76.9762887045,38.8941712194,0</coordinates></Point>
      </Placemark>
	

      <Placemark>
	<styleUrl>#ys</styleUrl>
        <name>O6xn6zZGs7vk</name>
        <Point><coordinates>-77.0314941586,38.8959667028,0</coordinates></Point>
      </Placemark>
	

      <Placemark>
	<styleUrl>#ys</styleUrl>
        <name>OGe9J0PUzHy6</name>
        <Point><coordinates>-77.0414354789,38.9055430323,0</coordinates></Point>
      </Placemark>
	

	      <Placemark>
		<name>OcH04ImVxWii</name>
		<styleUrl>#rs</styleUrl>
		<Point><coordinates>-77.0092828883,38.8903753155,0</coordinates></Point>
		<description>https://www.youtube.com/embed/t421erWVC3c</description>
	      </Placemark>
		

      <Placemark>
	<styleUrl>#ys</styleUrl>
        <name>Oql7iaQVgoNl</name>
        <Point><coordinates>-77.0177788908,38.8926813464,0</coordinates></Point>
      </Placemark>
	

      <Placemark>
	<styleUrl>#ys</styleUrl>
        <name>PGtnEBqQiclR</name>
        <Point><coordinates>-77.0283592225,38.896061796,0</coordinates></Point>
      </Placemark>
	

	      <Placemark>
		<name>PI503wb3YSoh</name>
		<styleUrl>#rs</styleUrl>
		<Point><coordinates>-77.0129674483,38.8898549731,0</coordinates></Point>
		<description>https://www.youtube.com/embed/RZX_xDc_UvA</description>
	      </Placemark>
		

      <Placemark>
	<styleUrl>#ys</styleUrl>
        <name>PS5QzMyOoJ1Y</name>
        <Point><coordinates>-77.0369874812,38.8906749377,0</coordinates></Point>
      </Placemark>
	

	      <Placemark>
		<name>Pf0Yj1jpQsem</name>
		<styleUrl>#rs</styleUrl>
		<Point><coordinates>-77.0035384343,38.8937408606,0</coordinates></Point>
		<description>d2hxwnssq7ss7g.cloudfront.net/Pf0Yj1jpQsem_cvt.mp4</description>
	      </Placemark>
		

      <Placemark>
	<styleUrl>#ys</styleUrl>
        <name>Pq1KmjpsWZGC</name>
        <Point><coordinates>-77.0310517159,38.8957953805,0</coordinates></Point>
      </Placemark>
	

      <Placemark>
	<styleUrl>#ys</styleUrl>
        <name>Q5fmkLNrexWY</name>
        <Point><coordinates>-77.01144808,38.8919305948,0</coordinates></Point>
      </Placemark>
	

      <Placemark>
	<styleUrl>#ys</styleUrl>
        <name>QXAdAxKxHc98</name>
        <Point><coordinates>-77.0200755892,38.9284830846,0</coordinates></Point>
      </Placemark>
	

      <Placemark>
	<styleUrl>#ys</styleUrl>
        <name>QY27s0IkwDgP</name>
        <Point><coordinates>-77.0284535932,38.8962149092,0</coordinates></Point>
      </Placemark>
	

	      <Placemark>
		<name>QcUzbo8hdJY6</name>
		<styleUrl>#rs</styleUrl>
		<Point><coordinates>-77.0366320372,38.8937496003,0</coordinates></Point>
		<description>d2hxwnssq7ss7g.cloudfront.net/QcUzbo8hdJY6_cvt.mp4</description>
	      </Placemark>
		

      <Placemark>
	<styleUrl>#ys</styleUrl>
        <name>QjPGrv4MH9oj</name>
        <Point><coordinates>-77.0297014141,38.8954389774,0</coordinates></Point>
      </Placemark>
	

	      <Placemark>
		<name>QjvAsHJ5o501</name>
		<styleUrl>#rs</styleUrl>
		<Point><coordinates>-77.0081731712,38.8913456562,0</coordinates></Point>
		<description>https://www.youtube.com/embed/APiC5kzM_yg</description>
	      </Placemark>
		

      <Placemark>
	<styleUrl>#ys</styleUrl>
        <name>QqszTRw5jJOV</name>
        <Point><coordinates>-77.0276508748,38.8962284189,0</coordinates></Point>
      </Placemark>
	

      <Placemark>
	<styleUrl>#ys</styleUrl>
        <name>QsFIMA5Zowme</name>
        <Point><coordinates>-77.0136763464,38.89208389,0</coordinates></Point>
      </Placemark>
	

      <Placemark>
	<styleUrl>#ys</styleUrl>
        <name>QzwzrD9c796I</name>
        <Point><coordinates>-77.031167763,38.896050287,0</coordinates></Point>
      </Placemark>
	

      <Placemark>
	<styleUrl>#ys</styleUrl>
        <name>R75EdEVjKq15</name>
        <Point><coordinates>-77.0405988455,38.9038613896,0</coordinates></Point>
      </Placemark>
	

      <Placemark>
	<styleUrl>#ys</styleUrl>
        <name>RPmQMhhr7IVG</name>
        <Point><coordinates>-77.0058679565,38.8909904024,0</coordinates></Point>
      </Placemark>
	

      <Placemark>
	<styleUrl>#ys</styleUrl>
        <name>RWVkNI2eugmK</name>
        <Point><coordinates>-77.0236685622,38.894251048,0</coordinates></Point>
      </Placemark>
	

	      <Placemark>
		<name>RfmiOsck22e4</name>
		<styleUrl>#rs</styleUrl>
		<Point><coordinates>-77.0105849191,38.8902773461,0</coordinates></Point>
		<description>d2hxwnssq7ss7g.cloudfront.net/RfmiOsck22e4_cvt.mp4</description>
	      </Placemark>
		

      <Placemark>
	<styleUrl>#ys</styleUrl>
        <name>SINnkDbJKVVy</name>
        <Point><coordinates>-77.0058427309,38.8913751578,0</coordinates></Point>
      </Placemark>
	

      <Placemark>
	<styleUrl>#ys</styleUrl>
        <name>SKOT75i5BAw7</name>
        <Point><coordinates>-77.0317141106,38.8956265955,0</coordinates></Point>
      </Placemark>
	

	      <Placemark>
		<name>SRpNqkWUHoLX</name>
		<styleUrl>#rs</styleUrl>
		<Point><coordinates>-77.0335369039,38.8964044286,0</coordinates></Point>
		<description>d2hxwnssq7ss7g.cloudfront.net/SRpNqkWUHoLX_cvt.mp4</description>
	      </Placemark>
		

      <Placemark>
	<styleUrl>#ys</styleUrl>
        <name>SWab7JCv7fyX</name>
        <Point><coordinates>-77.031224598,38.8958570446,0</coordinates></Point>
      </Placemark>
	

      <Placemark>
	<styleUrl>#ys</styleUrl>
        <name>SYQaXwuGxA8f</name>
        <Point><coordinates>-77.0366073619,38.9032349056,0</coordinates></Point>
      </Placemark>
	

      <Placemark>
	<styleUrl>#ys</styleUrl>
        <name>SfmYCe8DhMPA</name>
        <Point><coordinates>-77.019991266,38.9285688104,0</coordinates></Point>
      </Placemark>
	

      <Placemark>
	<styleUrl>#ys</styleUrl>
        <name>SjEbItHZFM0X</name>
        <Point><coordinates>-77.0312679821,38.8957505356,0</coordinates></Point>
      </Placemark>
	

	      <Placemark>
		<name>Sk5gvoxK8K1r</name>
		<styleUrl>#rs</styleUrl>
		<Point><coordinates>-77.0122109388,38.8893285124,0</coordinates></Point>
		<description>d2hxwnssq7ss7g.cloudfront.net/Sk5gvoxK8K1r_cvt.mp4</description>
	      </Placemark>
		

      <Placemark>
	<styleUrl>#ys</styleUrl>
        <name>T6crwRF3b40U</name>
        <Point><coordinates>-77.0115395061,38.8900019814,0</coordinates></Point>
      </Placemark>
	

      <Placemark>
	<styleUrl>#ys</styleUrl>
        <name>TRCvC55pmVXD</name>
        <Point><coordinates>-77.008928191,38.8973106376,0</coordinates></Point>
      </Placemark>
	

	      <Placemark>
		<name>TZMPQmDrtK0N</name>
		<styleUrl>#rs</styleUrl>
		<Point><coordinates>-77.035361243,38.8904586797,0</coordinates></Point>
		<description>d2hxwnssq7ss7g.cloudfront.net/TZMPQmDrtK0N_cvt.mp4</description>
	      </Placemark>
		

      <Placemark>
	<styleUrl>#ys</styleUrl>
        <name>TpOTFnspe5yH</name>
        <Point><coordinates>-77.0059559044,38.8907633894,0</coordinates></Point>
      </Placemark>
	

      <Placemark>
	<styleUrl>#ys</styleUrl>
        <name>TxM1JgGIikUv</name>
        <Point><coordinates>-77.0363401366,38.9013776022,0</coordinates></Point>
      </Placemark>
	

	      <Placemark>
		<name>U3vPnSCxokUn</name>
		<styleUrl>#rs</styleUrl>
		<Point><coordinates>-77.0109110181,38.8897285917,0</coordinates></Point>
		<description>d2hxwnssq7ss7g.cloudfront.net/U3vPnSCxokUn_cvt.mp4</description>
	      </Placemark>
		

      <Placemark>
	<styleUrl>#ys</styleUrl>
        <name>UJcZiDdVVVUG</name>
        <Point><coordinates>-77.0070453313,38.8894328751,0</coordinates></Point>
      </Placemark>
	

      <Placemark>
	<styleUrl>#ys</styleUrl>
        <name>UZhmf5vyUry9</name>
        <Point><coordinates>-77.0459420963,38.8881795423,0</coordinates></Point>
      </Placemark>
	

      <Placemark>
	<styleUrl>#ys</styleUrl>
        <name>UtznyTQf6eYE</name>
        <Point><coordinates>-77.0311818104,38.8956793643,0</coordinates></Point>
      </Placemark>
	

      <Placemark>
	<styleUrl>#ys</styleUrl>
        <name>UxO6KhjrmJnP</name>
        <Point><coordinates>-77.0263184456,38.8961210095,0</coordinates></Point>
      </Placemark>
	

      <Placemark>
	<styleUrl>#ys</styleUrl>
        <name>VPv13yKLMUEX</name>
        <Point><coordinates>-77.0148608969,38.8914584016,0</coordinates></Point>
      </Placemark>
	

      <Placemark>
	<styleUrl>#ys</styleUrl>
        <name>VVoRi15B0zgz</name>
        <Point><coordinates>-77.0320431932,38.8961356391,0</coordinates></Point>
      </Placemark>
	

      <Placemark>
	<styleUrl>#ys</styleUrl>
        <name>VWFFMwOyqqse</name>
        <Point><coordinates>-77.0273090916,38.8960316157,0</coordinates></Point>
      </Placemark>
	

      <Placemark>
	<styleUrl>#ys</styleUrl>
        <name>Vfb7RDCU9APR</name>
        <Point><coordinates>-77.0340364807,38.8912039079,0</coordinates></Point>
      </Placemark>
	

      <Placemark>
	<styleUrl>#ys</styleUrl>
        <name>VkiQFnIpMH1W</name>
        <Point><coordinates>-77.0089620662,38.8921595713,0</coordinates></Point>
      </Placemark>
	

      <Placemark>
	<styleUrl>#ys</styleUrl>
        <name>W0M6jS61D3P5</name>
        <Point><coordinates>-77.0112244867,38.8901570017,0</coordinates></Point>
      </Placemark>
	

      <Placemark>
	<styleUrl>#ys</styleUrl>
        <name>W5teVKSKYNXo</name>
        <Point><coordinates>-77.0058703902,38.8895878174,0</coordinates></Point>
      </Placemark>
	

	      <Placemark>
		<name>W6XYUCz6qu6J</name>
		<styleUrl>#rs</styleUrl>
		<Point><coordinates>-77.0362226049,38.891915129,0</coordinates></Point>
		<description>d2hxwnssq7ss7g.cloudfront.net/W6XYUCz6qu6J_cvt.mp4</description>
	      </Placemark>
		

      <Placemark>
	<styleUrl>#ys</styleUrl>
        <name>WCdYhCsOn7cV</name>
        <Point><coordinates>-77.0241514786,38.8895289149,0</coordinates></Point>
      </Placemark>
	

      <Placemark>
	<styleUrl>#ys</styleUrl>
        <name>WEoLQ2F7Iydi</name>
        <Point><coordinates>-77.0061484034,38.8905708891,0</coordinates></Point>
      </Placemark>
	

      <Placemark>
	<styleUrl>#ys</styleUrl>
        <name>WMSgfSnYOjtM</name>
        <Point><coordinates>-77.0260802087,38.8962776839,0</coordinates></Point>
      </Placemark>
	

      <Placemark>
	<styleUrl>#ys</styleUrl>
        <name>WXkILSGX6H82</name>
        <Point><coordinates>-77.0229532783,38.8938257053,0</coordinates></Point>
      </Placemark>
	

      <Placemark>
	<styleUrl>#ys</styleUrl>
        <name>WhLKwFSydgWN</name>
        <Point><coordinates>-76.9737356689,38.9281631252,0</coordinates></Point>
      </Placemark>
	

      <Placemark>
	<styleUrl>#ys</styleUrl>
        <name>WkE9fuIPjtKe</name>
        <Point><coordinates>-77.0309483835,38.8961709174,0</coordinates></Point>
      </Placemark>
	

      <Placemark>
	<styleUrl>#ys</styleUrl>
        <name>Wp7B67DcwpQi</name>
        <Point><coordinates>-77.0082090265,38.8912315212,0</coordinates></Point>
      </Placemark>
	

      <Placemark>
	<styleUrl>#ys</styleUrl>
        <name>Wp6H4HF5cGPh</name>
        <Point><coordinates>-77.0170727819,38.8970452669,0</coordinates></Point>
      </Placemark>
	

	      <Placemark>
		<name>WvNy0mY8LFTq</name>
		<styleUrl>#rs</styleUrl>
		<Point><coordinates>-77.0080350876,38.8898026508,0</coordinates></Point>
		<description>d2hxwnssq7ss7g.cloudfront.net/WvNy0mY8LFTq_cvt.mp4</description>
	      </Placemark>
		

      <Placemark>
	<styleUrl>#ys</styleUrl>
        <name>WyOKZccnn8dC</name>
        <Point><coordinates>-77.0155986686,38.8920610951,0</coordinates></Point>
      </Placemark>
	

      <Placemark>
	<styleUrl>#ys</styleUrl>
        <name>X0dtqNhkLfxx</name>
        <Point><coordinates>-77.0273484482,38.8962710017,0</coordinates></Point>
      </Placemark>
	

	      <Placemark>
		<name>X3O4lkVyQ2b5</name>
		<styleUrl>#rs</styleUrl>
		<Point><coordinates>-77.0360321553,38.8920096411,0</coordinates></Point>
		<description>d2hxwnssq7ss7g.cloudfront.net/X3O4lkVyQ2b5_cvt.mp4</description>
	      </Placemark>
		

      <Placemark>
	<styleUrl>#ys</styleUrl>
        <name>X49SN1j31V3f</name>
        <Point><coordinates>-77.0349730538,38.8897856176,0</coordinates></Point>
      </Placemark>
	

      <Placemark>
	<styleUrl>#ys</styleUrl>
        <name>XGxtrQAr7QOi</name>
        <Point><coordinates>-77.0266817533,38.892179258,0</coordinates></Point>
      </Placemark>
	

      <Placemark>
	<styleUrl>#ys</styleUrl>
        <name>XPcQa9r1x2q8</name>
        <Point><coordinates>-77.0320243086,38.8967568625,0</coordinates></Point>
      </Placemark>
	

	      <Placemark>
		<name>XXbKVa1YMVZe</name>
		<styleUrl>#rs</styleUrl>
		<Point><coordinates>-77.0119248807,38.8891173858,0</coordinates></Point>
		<description>d2hxwnssq7ss7g.cloudfront.net/XXbKVa1YMVZe_cvt.mp4</description>
	      </Placemark>
		

      <Placemark>
	<styleUrl>#ys</styleUrl>
        <name>Xg6g1UKjAOdd</name>
        <Point><coordinates>-77.0089383832,38.8894009178,0</coordinates></Point>
      </Placemark>
	

	      <Placemark>
		<name>Yv60aO8hsb4H</name>
		<styleUrl>#rs</styleUrl>
		<Point><coordinates>-77.0074017486,38.8902392629,0</coordinates></Point>
		<description>d2hxwnssq7ss7g.cloudfront.net/Yv60aO8hsb4H_cvt.mp4</description>
	      </Placemark>
		

      <Placemark>
	<styleUrl>#ys</styleUrl>
        <name>Z2CUIi2exmnO</name>
        <Point><coordinates>-77.0306303819,38.8958478183,0</coordinates></Point>
      </Placemark>
	

	      <Placemark>
		<name>Z8A5dWvZXeWv</name>
		<styleUrl>#rs</styleUrl>
		<Point><coordinates>-77.0324481074,38.8914705638,0</coordinates></Point>
		<description>d2hxwnssq7ss7g.cloudfront.net/Z8A5dWvZXeWv_cvt.mp4</description>
	      </Placemark>
		

      <Placemark>
	<styleUrl>#ys</styleUrl>
        <name>ZA2qdOAiaDJo</name>
        <Point><coordinates>-77.0111085042,38.8920309509,0</coordinates></Point>
      </Placemark>
	

      <Placemark>
	<styleUrl>#ys</styleUrl>
        <name>ZHX7ZrxgXRUH</name>
        <Point><coordinates>-77.0362094326,38.8914318987,0</coordinates></Point>
      </Placemark>
	

      <Placemark>
	<styleUrl>#ys</styleUrl>
        <name>Zlm4B3PVfc6Q</name>
        <Point><coordinates>-77.0296649555,38.8955974705,0</coordinates></Point>
      </Placemark>
	

      <Placemark>
	<styleUrl>#ys</styleUrl>
        <name>ZzbV0rOg4p43</name>
        <Point><coordinates>-77.0305283085,38.8956508325,0</coordinates></Point>
      </Placemark>
	

      <Placemark>
	<styleUrl>#ys</styleUrl>
        <name>a0uJR967hY98</name>
        <Point><coordinates>-77.0313802826,38.8959777684,0</coordinates></Point>
      </Placemark>
	

      <Placemark>
	<styleUrl>#ys</styleUrl>
        <name>aRvJC6rVZgd4</name>
        <Point><coordinates>-77.0100566387,38.8919240652,0</coordinates></Point>
      </Placemark>
	

      <Placemark>
	<styleUrl>#ys</styleUrl>
        <name>aYnpYM5L5A0k</name>
        <Point><coordinates>-77.0311013762,38.8959388611,0</coordinates></Point>
      </Placemark>
	

      <Placemark>
	<styleUrl>#ys</styleUrl>
        <name>adtV4zbkXr5x</name>
        <Point><coordinates>-77.0104708766,38.8901884208,0</coordinates></Point>
      </Placemark>
	

	      <Placemark>
		<name>agiDC8ls5WwD</name>
		<styleUrl>#rs</styleUrl>
		<Point><coordinates>-77.0360106495,38.9015281741,0</coordinates></Point>
		<description>d2hxwnssq7ss7g.cloudfront.net/agiDC8ls5WwD_cvt.mp4</description>
	      </Placemark>
		

	      <Placemark>
		<name>ayocSVsXW3h3</name>
		<styleUrl>#rs</styleUrl>
		<Point><coordinates>-77.0105586084,38.8900611528,0</coordinates></Point>
		<description>d2hxwnssq7ss7g.cloudfront.net/ayocSVsXW3h3_cvt.mp4</description>
	      </Placemark>
		

      <Placemark>
	<styleUrl>#ys</styleUrl>
        <name>b5lCVIHnrm2q</name>
        <Point><coordinates>-77.0104215819,38.8899591257,0</coordinates></Point>
      </Placemark>
	

      <Placemark>
	<styleUrl>#ys</styleUrl>
        <name>bBdCTxRjNxTK</name>
        <Point><coordinates>-77.0303205553,38.8958581183,0</coordinates></Point>
      </Placemark>
	

      <Placemark>
	<styleUrl>#ys</styleUrl>
        <name>bL5i57vzMs1K</name>
        <Point><coordinates>-77.0199367627,38.9286042484,0</coordinates></Point>
      </Placemark>
	

      <Placemark>
	<styleUrl>#ys</styleUrl>
        <name>bQB00UD5e5jG</name>
        <Point><coordinates>-77.0121560713,38.8915635373,0</coordinates></Point>
      </Placemark>
	

	      <Placemark>
		<name>bTZISxkK39sH</name>
		<styleUrl>#rs</styleUrl>
		<Point><coordinates>-77.0087197684,38.8896223414,0</coordinates></Point>
		<description>https://www.youtube.com/embed/x2WDuF5jsgg</description>
	      </Placemark>
		

      <Placemark>
	<styleUrl>#ys</styleUrl>
        <name>bakOqDJTBp8Q</name>
        <Point><coordinates>-77.0304958266,38.8957633121,0</coordinates></Point>
      </Placemark>
	

      <Placemark>
	<styleUrl>#ys</styleUrl>
        <name>biyBKCimTPsu</name>
        <Point><coordinates>-77.0307156308,38.8963031654,0</coordinates></Point>
      </Placemark>
	

      <Placemark>
	<styleUrl>#ys</styleUrl>
        <name>c7d5vn7Dlpo4</name>
        <Point><coordinates>-77.0304620109,38.8958994764,0</coordinates></Point>
      </Placemark>
	

      <Placemark>
	<styleUrl>#ys</styleUrl>
        <name>cVT9vWysmxdS</name>
        <Point><coordinates>-77.0097838605,38.8979763747,0</coordinates></Point>
      </Placemark>
	

      <Placemark>
	<styleUrl>#ys</styleUrl>
        <name>chNlwfMrjmYJ</name>
        <Point><coordinates>-77.0272545036,38.8963269788,0</coordinates></Point>
      </Placemark>
	

      <Placemark>
	<styleUrl>#ys</styleUrl>
        <name>d5gJuCBu7RI7</name>
        <Point><coordinates>-77.0323136627,38.8959260996,0</coordinates></Point>
      </Placemark>
	

      <Placemark>
	<styleUrl>#ys</styleUrl>
        <name>dT7mBZdL2Jqa</name>
        <Point><coordinates>-77.0272113388,38.8895288923,0</coordinates></Point>
      </Placemark>
	

      <Placemark>
	<styleUrl>#ys</styleUrl>
        <name>dvST93gaZo1o</name>
        <Point><coordinates>-77.0059237486,38.8906161749,0</coordinates></Point>
      </Placemark>
	

      <Placemark>
	<styleUrl>#ys</styleUrl>
        <name>dy5GFIwCwuOP</name>
        <Point><coordinates>-77.0383795819,38.8921820571,0</coordinates></Point>
      </Placemark>
	

      <Placemark>
	<styleUrl>#ys</styleUrl>
        <name>e8PppkH5mMcT</name>
        <Point><coordinates>-77.0348758596,38.8924434332,0</coordinates></Point>
      </Placemark>
	

      <Placemark>
	<styleUrl>#ys</styleUrl>
        <name>eGOoR3I08FkK</name>
        <Point><coordinates>-77.0106205683,38.8902181029,0</coordinates></Point>
      </Placemark>
	

      <Placemark>
	<styleUrl>#ys</styleUrl>
        <name>eGWFiGU2WtR8</name>
        <Point><coordinates>-77.0365942072,38.8917666539,0</coordinates></Point>
      </Placemark>
	

      <Placemark>
	<styleUrl>#ys</styleUrl>
        <name>elO7ySjdGZub</name>
        <Point><coordinates>-77.0060464632,38.8904739292,0</coordinates></Point>
      </Placemark>
	

      <Placemark>
	<styleUrl>#ys</styleUrl>
        <name>esDUnWVLgG6n</name>
        <Point><coordinates>-77.0074100415,38.8897275371,0</coordinates></Point>
      </Placemark>
	

      <Placemark>
	<styleUrl>#ys</styleUrl>
        <name>fL9NNzlDZMmH</name>
        <Point><coordinates>-77.0239262804,38.8968137949,0</coordinates></Point>
      </Placemark>
	

	      <Placemark>
		<name>fR3uMI0eP5i4</name>
		<styleUrl>#rs</styleUrl>
		<Point><coordinates>-77.0310526295,38.8959651053,0</coordinates></Point>
		<description>d2hxwnssq7ss7g.cloudfront.net/fR3uMI0eP5i4_cvt.mp4</description>
	      </Placemark>
		

	      <Placemark>
		<name>fT9hBhlaFgZd</name>
		<styleUrl>#rs</styleUrl>
		<Point><coordinates>-77.0105497269,38.8896722218,0</coordinates></Point>
		<description>d2hxwnssq7ss7g.cloudfront.net/fT9hBhlaFgZd_cvt.mp4</description>
	      </Placemark>
		

      <Placemark>
	<styleUrl>#ys</styleUrl>
        <name>fayNJbjcqXWg</name>
        <Point><coordinates>-77.0071627922,38.8902552576,0</coordinates></Point>
      </Placemark>
	

      <Placemark>
	<styleUrl>#ys</styleUrl>
        <name>fbBv4EmEzw9i</name>
        <Point><coordinates>-77.0317212857,38.8958587904,0</coordinates></Point>
      </Placemark>
	

      <Placemark>
	<styleUrl>#ys</styleUrl>
        <name>fcfIbDNNJlsD</name>
        <Point><coordinates>-77.0195517516,38.896129266,0</coordinates></Point>
      </Placemark>
	

	      <Placemark>
		<name>fhqU4rQ4ZFzO</name>
		<styleUrl>#rs</styleUrl>
		<Point><coordinates>-77.0099383715,38.889900925,0</coordinates></Point>
		<description>d2hxwnssq7ss7g.cloudfront.net/fhqU4rQ4ZFzO_cvt.mp4</description>
	      </Placemark>
		

      <Placemark>
	<styleUrl>#ys</styleUrl>
        <name>fjnPyq0YXD40</name>
        <Point><coordinates>-77.0357294021,38.8893119268,0</coordinates></Point>
      </Placemark>
	

	      <Placemark>
		<name>fqMErkRVItV0</name>
		<styleUrl>#rs</styleUrl>
		<Point><coordinates>-77.0105416974,38.8902391628,0</coordinates></Point>
		<description>d2hxwnssq7ss7g.cloudfront.net/fqMErkRVItV0_cvt.mp4</description>
	      </Placemark>
		

      <Placemark>
	<styleUrl>#ys</styleUrl>
        <name>g5Yl8ERzrXxe</name>
        <Point><coordinates>-77.0101212449,38.8905586811,0</coordinates></Point>
      </Placemark>
	

      <Placemark>
	<styleUrl>#ys</styleUrl>
        <name>gCIzeIMv3uwV</name>
        <Point><coordinates>-77.0301701238,38.8959476088,0</coordinates></Point>
      </Placemark>
	

      <Placemark>
	<styleUrl>#ys</styleUrl>
        <name>gZ02yZCtxC2C</name>
        <Point><coordinates>-77.0310316841,38.8959091794,0</coordinates></Point>
      </Placemark>
	

      <Placemark>
	<styleUrl>#ys</styleUrl>
        <name>gj867lWsCvHv</name>
        <Point><coordinates>-77.0119900688,38.8906675049,0</coordinates></Point>
      </Placemark>
	

      <Placemark>
	<styleUrl>#ys</styleUrl>
        <name>guy64xqjKgEF</name>
        <Point><coordinates>-77.0109739255,38.8920864696,0</coordinates></Point>
      </Placemark>
	

	      <Placemark>
		<name>gyQ4hi1OVvNQ</name>
		<styleUrl>#rs</styleUrl>
		<Point><coordinates>-77.0366954051,38.8919629586,0</coordinates></Point>
		<description>d2hxwnssq7ss7g.cloudfront.net/gyQ4hi1OVvNQ_cvt.mp4</description>
	      </Placemark>
		

      <Placemark>
	<styleUrl>#ys</styleUrl>
        <name>h7fR4kXQv2Mg</name>
        <Point><coordinates>-77.0108583559,38.8921207831,0</coordinates></Point>
      </Placemark>
	

      <Placemark>
	<styleUrl>#ys</styleUrl>
        <name>hG1jccUFQzXx</name>
        <Point><coordinates>-77.0316586861,38.8958212402,0</coordinates></Point>
      </Placemark>
	

      <Placemark>
	<styleUrl>#ys</styleUrl>
        <name>hL3LsRN1titr</name>
        <Point><coordinates>-77.0112432664,38.8904269511,0</coordinates></Point>
      </Placemark>
	

	      <Placemark>
		<name>hg5pS8dNppFa</name>
		<styleUrl>#rs</styleUrl>
		<Point><coordinates>-77.0100898196,38.8898722857,0</coordinates></Point>
		<description>d2hxwnssq7ss7g.cloudfront.net/hg5pS8dNppFa_cvt.mp4</description>
	      </Placemark>
		

	      <Placemark>
		<name>hgQYuqIrZTls</name>
		<styleUrl>#rs</styleUrl>
		<Point><coordinates>-77.0105298036,38.8900123087,0</coordinates></Point>
		<description>d2hxwnssq7ss7g.cloudfront.net/hgQYuqIrZTls_cvt.mp4</description>
	      </Placemark>
		

	      <Placemark>
		<name>hr06Kn7hkUP1</name>
		<styleUrl>#rs</styleUrl>
		<Point><coordinates>-77.0105971557,38.8896196023,0</coordinates></Point>
		<description>d2hxwnssq7ss7g.cloudfront.net/hr06Kn7hkUP1_cvt.mp4</description>
	      </Placemark>
		

      <Placemark>
	<styleUrl>#ys</styleUrl>
        <name>hu1xEsQ2LWOO</name>
        <Point><coordinates>-77.0316256452,38.8954531797,0</coordinates></Point>
      </Placemark>
	

      <Placemark>
	<styleUrl>#ys</styleUrl>
        <name>i7xUeEr5Ysmm</name>
        <Point><coordinates>-77.0131640912,38.8912566161,0</coordinates></Point>
      </Placemark>
	

      <Placemark>
	<styleUrl>#ys</styleUrl>
        <name>i9zf6FWa2biT</name>
        <Point><coordinates>-77.0289225052,38.8894550685,0</coordinates></Point>
      </Placemark>
	

      <Placemark>
	<styleUrl>#ys</styleUrl>
        <name>iSylgdmLFlrk</name>
        <Point><coordinates>-77.0120373163,38.8913047923,0</coordinates></Point>
      </Placemark>
	

      <Placemark>
	<styleUrl>#ys</styleUrl>
        <name>iWy0LDSY1Pzw</name>
        <Point><coordinates>-77.0320924462,38.89696998,0</coordinates></Point>
      </Placemark>
	

      <Placemark>
	<styleUrl>#ys</styleUrl>
        <name>iaGerF4ZUVB5</name>
        <Point><coordinates>-77.0200351234,38.928442609,0</coordinates></Point>
      </Placemark>
	

	      <Placemark>
		<name>iarzfMQKhqPN</name>
		<styleUrl>#rs</styleUrl>
		<Point><coordinates>-77.0349660963,38.8921936698,0</coordinates></Point>
		<description>d2hxwnssq7ss7g.cloudfront.net/iarzfMQKhqPN_cvt.mp4</description>
	      </Placemark>
		

	      <Placemark>
		<name>ijwcgCCsZfdl</name>
		<styleUrl>#rs</styleUrl>
		<Point><coordinates>-77.0139790903,38.8913416145,0</coordinates></Point>
		<description>d2hxwnssq7ss7g.cloudfront.net/ijwcgCCsZfdl_cvt.mp4</description>
	      </Placemark>
		

	      <Placemark>
		<name>iqf7FPtd8arV</name>
		<styleUrl>#rs</styleUrl>
		<Point><coordinates>-77.0345645766,38.8916970623,0</coordinates></Point>
		<description>d2hxwnssq7ss7g.cloudfront.net/iqf7FPtd8arV_cvt.mp4</description>
	      </Placemark>
		

      <Placemark>
	<styleUrl>#ys</styleUrl>
        <name>j0flaNpLgmi3</name>
        <Point><coordinates>-77.0167595921,38.8922220477,0</coordinates></Point>
      </Placemark>
	

	      <Placemark>
		<name>jNECpFrRhbpg</name>
		<styleUrl>#rs</styleUrl>
		<Point><coordinates>-77.0102895815,38.8901720574,0</coordinates></Point>
		<description>d2hxwnssq7ss7g.cloudfront.net/jNECpFrRhbpg_cvt.mp4</description>
	      </Placemark>
		

      <Placemark>
	<styleUrl>#ys</styleUrl>
        <name>jswdPZ70U3Uw</name>
        <Point><coordinates>-77.0320115214,38.8852290259,0</coordinates></Point>
      </Placemark>
	

      <Placemark>
	<styleUrl>#ys</styleUrl>
        <name>jsswcn7pfQoQ</name>
        <Point><coordinates>-77.0311813353,38.8958788986,0</coordinates></Point>
      </Placemark>
	

      <Placemark>
	<styleUrl>#ys</styleUrl>
        <name>jxQHmvwEr9K0</name>
        <Point><coordinates>-77.0347486524,38.8921311088,0</coordinates></Point>
      </Placemark>
	

	      <Placemark>
		<name>k2X98xAHmHWa</name>
		<styleUrl>#rs</styleUrl>
		<Point><coordinates>-77.0093859789,38.8904734737,0</coordinates></Point>
		<description>d2hxwnssq7ss7g.cloudfront.net/k2X98xAHmHWa_cvt.mp4</description>
	      </Placemark>
		

      <Placemark>
	<styleUrl>#ys</styleUrl>
        <name>k88WI1wfme63</name>
        <Point><coordinates>-77.0312640811,38.8957966249,0</coordinates></Point>
      </Placemark>
	

	      <Placemark>
		<name>kQ0ltkpwFuvd</name>
		<styleUrl>#rs</styleUrl>
		<Point><coordinates>-77.0364214303,38.8916589648,0</coordinates></Point>
		<description>d2hxwnssq7ss7g.cloudfront.net/kQ0ltkpwFuvd_cvt.mp4</description>
	      </Placemark>
		

      <Placemark>
	<styleUrl>#ys</styleUrl>
        <name>kVQRUSdJZILN</name>
        <Point><coordinates>-77.0309487196,38.8958712052,0</coordinates></Point>
      </Placemark>
	

	      <Placemark>
		<name>kau2NI4P6n48</name>
		<styleUrl>#rs</styleUrl>
		<Point><coordinates>-77.0103270467,38.890254591,0</coordinates></Point>
		<description>d2hxwnssq7ss7g.cloudfront.net/kau2NI4P6n48_cvt.mp4</description>
	      </Placemark>
		

      <Placemark>
	<styleUrl>#ys</styleUrl>
        <name>kbHLu1MNgOgl</name>
        <Point><coordinates>-77.005572119,38.890289682,0</coordinates></Point>
      </Placemark>
	

	      <Placemark>
		<name>kgoySSVz8sOy</name>
		<styleUrl>#rs</styleUrl>
		<Point><coordinates>-77.0116107739,38.8905282109,0</coordinates></Point>
		<description>d2hxwnssq7ss7g.cloudfront.net/kgoySSVz8sOy_cvt.mp4</description>
	      </Placemark>
		

      <Placemark>
	<styleUrl>#ys</styleUrl>
        <name>l0zTVw1Nz8AZ</name>
        <Point><coordinates>-77.0150516119,38.8920690871,0</coordinates></Point>
      </Placemark>
	

	      <Placemark>
		<name>lTZkY2ypwhFT</name>
		<styleUrl>#rs</styleUrl>
		<Point><coordinates>-77.0364324384,38.9012499827,0</coordinates></Point>
		<description>d2hxwnssq7ss7g.cloudfront.net/lTZkY2ypwhFT_cvt.mp4</description>
	      </Placemark>
		

      <Placemark>
	<styleUrl>#ys</styleUrl>
        <name>lZ79WP2S5UUZ</name>
        <Point><coordinates>-77.0183608374,38.8922983036,0</coordinates></Point>
      </Placemark>
	

      <Placemark>
	<styleUrl>#ys</styleUrl>
        <name>leF1m0XwjsTR</name>
        <Point><coordinates>-77.0177491117,38.892131587,0</coordinates></Point>
      </Placemark>
	

      <Placemark>
	<styleUrl>#ys</styleUrl>
        <name>llhcmHyVF6fl</name>
        <Point><coordinates>-77.0271401948,38.8998777,0</coordinates></Point>
      </Placemark>
	

      <Placemark>
	<styleUrl>#ys</styleUrl>
        <name>ltsd2rCpGHb2</name>
        <Point><coordinates>-77.0311671454,38.8956946499,0</coordinates></Point>
      </Placemark>
	

      <Placemark>
	<styleUrl>#ys</styleUrl>
        <name>lwsbpHjteNDM</name>
        <Point><coordinates>-77.0310502956,38.8956677521,0</coordinates></Point>
      </Placemark>
	

      <Placemark>
	<styleUrl>#ys</styleUrl>
        <name>m2MYha7oj5Up</name>
        <Point><coordinates>-77.0125758635,38.8921834365,0</coordinates></Point>
      </Placemark>
	

	      <Placemark>
		<name>m4XCINGgSKee</name>
		<styleUrl>#rs</styleUrl>
		<Point><coordinates>-77.0103791105,38.8901415955,0</coordinates></Point>
		<description>d2hxwnssq7ss7g.cloudfront.net/m4XCINGgSKee_cvt.mp4</description>
	      </Placemark>
		

	      <Placemark>
		<name>mD0ZC6PMF71x</name>
		<styleUrl>#rs</styleUrl>
		<Point><coordinates>-77.0134703066,38.8910877435,0</coordinates></Point>
		<description>d2hxwnssq7ss7g.cloudfront.net/mD0ZC6PMF71x_cvt.mp4</description>
	      </Placemark>
		

	      <Placemark>
		<name>mIn3PZBW1oY6</name>
		<styleUrl>#rs</styleUrl>
		<Point><coordinates>-77.0363056494,38.8919331831,0</coordinates></Point>
		<description>d2hxwnssq7ss7g.cloudfront.net/mIn3PZBW1oY6_cvt.mp4</description>
	      </Placemark>
		

      <Placemark>
	<styleUrl>#ys</styleUrl>
        <name>mKBu44BuTIOf</name>
        <Point><coordinates>-77.0279439734,38.8922364201,0</coordinates></Point>
      </Placemark>
	

      <Placemark>
	<styleUrl>#ys</styleUrl>
        <name>mLnzgyK1MjJG</name>
        <Point><coordinates>-77.0369504562,38.8915167912,0</coordinates></Point>
      </Placemark>
	

      <Placemark>
	<styleUrl>#ys</styleUrl>
        <name>mTENLwxiN9IY</name>
        <Point><coordinates>-77.0317602104,38.8973576758,0</coordinates></Point>
      </Placemark>
	

	      <Placemark>
		<name>mcF1quvpSvFu</name>
		<styleUrl>#rs</styleUrl>
		<Point><coordinates>-77.0353361507,38.9077436169,0</coordinates></Point>
		<description>d2hxwnssq7ss7g.cloudfront.net/mcF1quvpSvFu_cvt.mp4</description>
	      </Placemark>
		

      <Placemark>
	<styleUrl>#ys</styleUrl>
        <name>mdfto3jP9YME</name>
        <Point><coordinates>-77.0316636068,38.8956561608,0</coordinates></Point>
      </Placemark>
	

      <Placemark>
	<styleUrl>#ys</styleUrl>
        <name>mgPa98ehfKgQ</name>
        <Point><coordinates>-77.0318427746,38.8958352693,0</coordinates></Point>
      </Placemark>
	

      <Placemark>
	<styleUrl>#ys</styleUrl>
        <name>mnGbHgsVIgod</name>
        <Point><coordinates>-77.0314318654,38.8959493023,0</coordinates></Point>
      </Placemark>
	

      <Placemark>
	<styleUrl>#ys</styleUrl>
        <name>mnp38uv7p0Tz</name>
        <Point><coordinates>-77.0106292199,38.8901517928,0</coordinates></Point>
      </Placemark>
	

	      <Placemark>
		<name>n36b4RLj6RgU</name>
		<styleUrl>#rs</styleUrl>
		<Point><coordinates>-77.0332571345,38.8921246592,0</coordinates></Point>
		<description>d2hxwnssq7ss7g.cloudfront.net/n36b4RLj6RgU_cvt.mp4</description>
	      </Placemark>
		

	      <Placemark>
		<name>nX0DJVhP5fI0</name>
		<styleUrl>#rs</styleUrl>
		<Point><coordinates>-77.0116386032,38.8895011669,0</coordinates></Point>
		<description>d2hxwnssq7ss7g.cloudfront.net/nX0DJVhP5fI0_cvt.mp4</description>
	      </Placemark>
		

      <Placemark>
	<styleUrl>#ys</styleUrl>
        <name>nXQSQswzJbCj</name>
        <Point><coordinates>-77.0320643645,38.8963968106,0</coordinates></Point>
      </Placemark>
	

      <Placemark>
	<styleUrl>#ys</styleUrl>
        <name>ngnsoQ4PQT8T</name>
        <Point><coordinates>-77.0062328519,38.8906453468,0</coordinates></Point>
      </Placemark>
	

      <Placemark>
	<styleUrl>#ys</styleUrl>
        <name>nrQQXSv99n2l</name>
        <Point><coordinates>-77.0309565283,38.898064023,0</coordinates></Point>
      </Placemark>
	

      <Placemark>
	<styleUrl>#ys</styleUrl>
        <name>ns9EbTf56zJM</name>
        <Point><coordinates>-77.0105904829,38.8899680368,0</coordinates></Point>
      </Placemark>
	

      <Placemark>
	<styleUrl>#ys</styleUrl>
        <name>ntxLrkKrjePR</name>
        <Point><coordinates>-77.0332372201,38.896744735,0</coordinates></Point>
      </Placemark>
	

      <Placemark>
	<styleUrl>#ys</styleUrl>
        <name>o2rK0URJkqxU</name>
        <Point><coordinates>-77.0110261158,38.8920136502,0</coordinates></Point>
      </Placemark>
	

      <Placemark>
	<styleUrl>#ys</styleUrl>
        <name>o7wldzOZ1oWk</name>
        <Point><coordinates>-77.0216643491,38.8933568245,0</coordinates></Point>
      </Placemark>
	

      <Placemark>
	<styleUrl>#ys</styleUrl>
        <name>oA12cDb5tYGx</name>
        <Point><coordinates>-77.0057795776,38.8914420625,0</coordinates></Point>
      </Placemark>
	

      <Placemark>
	<styleUrl>#ys</styleUrl>
        <name>oH1V5EIwRIpZ</name>
        <Point><coordinates>-77.0247950122,38.9003625655,0</coordinates></Point>
      </Placemark>
	

      <Placemark>
	<styleUrl>#ys</styleUrl>
        <name>oOaAbjGHOMlu</name>
        <Point><coordinates>-77.0345549367,38.891267481,0</coordinates></Point>
      </Placemark>
	

      <Placemark>
	<styleUrl>#ys</styleUrl>
        <name>oQBnLGUhhWTU</name>
        <Point><coordinates>-77.0300118049,38.8957293687,0</coordinates></Point>
      </Placemark>
	

      <Placemark>
	<styleUrl>#ys</styleUrl>
        <name>ocAZoGvKg4kp</name>
        <Point><coordinates>-77.0316887132,38.8959712079,0</coordinates></Point>
      </Placemark>
	

	      <Placemark>
		<name>og2zOouYA0bD</name>
		<styleUrl>#rs</styleUrl>
		<Point><coordinates>-77.0345724687,38.8919899536,0</coordinates></Point>
		<description>d2hxwnssq7ss7g.cloudfront.net/og2zOouYA0bD_cvt.mp4</description>
	      </Placemark>
		

      <Placemark>
	<styleUrl>#ys</styleUrl>
        <name>oq0jpbCT651M</name>
        <Point><coordinates>-77.0322713967,38.8920888335,0</coordinates></Point>
      </Placemark>
	

	      <Placemark>
		<name>pN3q5NvwoghI</name>
		<styleUrl>#rs</styleUrl>
		<Point><coordinates>-77.0102922634,38.8897696904,0</coordinates></Point>
		<description>d2hxwnssq7ss7g.cloudfront.net/pN3q5NvwoghI_cvt.mp4</description>
	      </Placemark>
		

      <Placemark>
	<styleUrl>#ys</styleUrl>
        <name>pQNQvHA2ihe8</name>
        <Point><coordinates>-77.0422939764,38.8563664126,0</coordinates></Point>
      </Placemark>
	

      <Placemark>
	<styleUrl>#ys</styleUrl>
        <name>pdG1EKpyDttY</name>
        <Point><coordinates>-77.0270634591,38.8958959935,0</coordinates></Point>
      </Placemark>
	

      <Placemark>
	<styleUrl>#ys</styleUrl>
        <name>pnYKftAm1NW5</name>
        <Point><coordinates>-77.0304376535,38.8963000805,0</coordinates></Point>
      </Placemark>
	

      <Placemark>
	<styleUrl>#ys</styleUrl>
        <name>pqw9ecZyoD5k</name>
        <Point><coordinates>-77.0313583325,38.8958208077,0</coordinates></Point>
      </Placemark>
	

	      <Placemark>
		<name>prb3609Bx5BJ</name>
		<styleUrl>#rs</styleUrl>
		<Point><coordinates>-77.0402583785,38.8923209227,0</coordinates></Point>
		<description>d2hxwnssq7ss7g.cloudfront.net/prb3609Bx5BJ_cvt.mp4</description>
	      </Placemark>
		

      <Placemark>
	<styleUrl>#ys</styleUrl>
        <name>pyIYYPfceFx1</name>
        <Point><coordinates>-77.0059314871,38.8906490606,0</coordinates></Point>
      </Placemark>
	

      <Placemark>
	<styleUrl>#ys</styleUrl>
        <name>q4whxOr0C7fX</name>
        <Point><coordinates>-77.0349406786,38.889778154,0</coordinates></Point>
      </Placemark>
	

      <Placemark>
	<styleUrl>#ys</styleUrl>
        <name>qGwtu6qUHfjy</name>
        <Point><coordinates>-77.0103443264,38.8901368413,0</coordinates></Point>
      </Placemark>
	

      <Placemark>
	<styleUrl>#ys</styleUrl>
        <name>qP56A9uC1Nzf</name>
        <Point><coordinates>-77.0107700373,38.8792475424,0</coordinates></Point>
      </Placemark>
	

      <Placemark>
	<styleUrl>#ys</styleUrl>
        <name>qt23NEdtnK7a</name>
        <Point><coordinates>-77.0057117529,38.8902292672,0</coordinates></Point>
      </Placemark>
	

      <Placemark>
	<styleUrl>#ys</styleUrl>
        <name>qu0N5hTntCnU</name>
        <Point><coordinates>-77.019932593,38.9286051372,0</coordinates></Point>
      </Placemark>
	

      <Placemark>
	<styleUrl>#ys</styleUrl>
        <name>rELKkRc7k9H5</name>
        <Point><coordinates>-77.0295286152,38.8959111496,0</coordinates></Point>
      </Placemark>
	

      <Placemark>
	<styleUrl>#ys</styleUrl>
        <name>rOZdCrZOfTJl</name>
        <Point><coordinates>-77.0301543111,38.8956268652,0</coordinates></Point>
      </Placemark>
	

      <Placemark>
	<styleUrl>#ys</styleUrl>
        <name>rmPZ2rvZSLkM</name>
        <Point><coordinates>-77.0320621385,38.8962596625,0</coordinates></Point>
      </Placemark>
	

      <Placemark>
	<styleUrl>#ys</styleUrl>
        <name>sUVnmK0mW0dO</name>
        <Point><coordinates>-77.035345009,38.9025325721,0</coordinates></Point>
      </Placemark>
	

      <Placemark>
	<styleUrl>#ys</styleUrl>
        <name>sVQIA0vMuObz</name>
        <Point><coordinates>-77.0360959636,38.8920634876,0</coordinates></Point>
      </Placemark>
	

      <Placemark>
	<styleUrl>#ys</styleUrl>
        <name>sZ8B9n3118xn</name>
        <Point><coordinates>-77.0298925139,38.8962650672,0</coordinates></Point>
      </Placemark>
	

      <Placemark>
	<styleUrl>#ys</styleUrl>
        <name>sjZ0AJayr0n2</name>
        <Point><coordinates>-77.0344464381,38.8885339531,0</coordinates></Point>
      </Placemark>
	

      <Placemark>
	<styleUrl>#ys</styleUrl>
        <name>t1BBA727FN5K</name>
        <Point><coordinates>-77.0114397017,38.8920422556,0</coordinates></Point>
      </Placemark>
	

      <Placemark>
	<styleUrl>#ys</styleUrl>
        <name>tUPqUzLdXiYy</name>
        <Point><coordinates>-77.0364400478,38.9030375336,0</coordinates></Point>
      </Placemark>
	

      <Placemark>
	<styleUrl>#ys</styleUrl>
        <name>tXtZXqzoOoEp</name>
        <Point><coordinates>-77.0314315646,38.8963091381,0</coordinates></Point>
      </Placemark>
	

      <Placemark>
	<styleUrl>#ys</styleUrl>
        <name>tbCRTYIRUqOX</name>
        <Point><coordinates>-77.0332186122,38.8967211563,0</coordinates></Point>
      </Placemark>
	

      <Placemark>
	<styleUrl>#ys</styleUrl>
        <name>tb76lsT2Wakl</name>
        <Point><coordinates>-77.0101726099,38.8898451249,0</coordinates></Point>
      </Placemark>
	

      <Placemark>
	<styleUrl>#ys</styleUrl>
        <name>txk1J3w3EnxD</name>
        <Point><coordinates>-77.0108422367,38.8920797119,0</coordinates></Point>
      </Placemark>
	

      <Placemark>
	<styleUrl>#ys</styleUrl>
        <name>uHilSUtJ4IQi</name>
        <Point><coordinates>-77.0198792937,38.9288417202,0</coordinates></Point>
      </Placemark>
	

	      <Placemark>
		<name>uO3OyLcDfy9p</name>
		<styleUrl>#rs</styleUrl>
		<Point><coordinates>-77.0363510397,38.8908285741,0</coordinates></Point>
		<description>d2hxwnssq7ss7g.cloudfront.net/uO3OyLcDfy9p_cvt.mp4</description>
	      </Placemark>
		

      <Placemark>
	<styleUrl>#ys</styleUrl>
        <name>uPDQ9Rsyo7AA</name>
        <Point><coordinates>-77.0243799845,38.8905424403,0</coordinates></Point>
      </Placemark>
	

      <Placemark>
	<styleUrl>#ys</styleUrl>
        <name>uYNb0PwARkgL</name>
        <Point><coordinates>-77.027951348,38.8966688819,0</coordinates></Point>
      </Placemark>
	

      <Placemark>
	<styleUrl>#ys</styleUrl>
        <name>uea75HdM5YCy</name>
        <Point><coordinates>-77.0309300149,38.8960075592,0</coordinates></Point>
      </Placemark>
	

	      <Placemark>
		<name>uu11kCrXZa78</name>
		<styleUrl>#rs</styleUrl>
		<Point><coordinates>-77.0107322057,38.8895097494,0</coordinates></Point>
		<description>d2hxwnssq7ss7g.cloudfront.net/uu11kCrXZa78_cvt.mp4</description>
	      </Placemark>
		

      <Placemark>
	<styleUrl>#ys</styleUrl>
        <name>uzAxHgmcOO9h</name>
        <Point><coordinates>-77.018257673,38.8785602172,0</coordinates></Point>
      </Placemark>
	

      <Placemark>
	<styleUrl>#ys</styleUrl>
        <name>v3UxT95zkOYb</name>
        <Point><coordinates>-77.0114514669,38.8921289233,0</coordinates></Point>
      </Placemark>
	

	      <Placemark>
		<name>v63BKYYYkJiU</name>
		<styleUrl>#rs</styleUrl>
		<Point><coordinates>-77.014277277,38.8898448303,0</coordinates></Point>
		<description>d2hxwnssq7ss7g.cloudfront.net/v63BKYYYkJiU_cvt.mp4</description>
	      </Placemark>
		

      <Placemark>
	<styleUrl>#ys</styleUrl>
        <name>vN6sfCO2CYIu</name>
        <Point><coordinates>-77.031844407,38.9021369219,0</coordinates></Point>
      </Placemark>
	

      <Placemark>
	<styleUrl>#ys</styleUrl>
        <name>vdwimQQOoumG</name>
        <Point><coordinates>-77.0312770876,38.8956845538,0</coordinates></Point>
      </Placemark>
	

      <Placemark>
	<styleUrl>#ys</styleUrl>
        <name>venxEDovbQEz</name>
        <Point><coordinates>-77.0306686058,38.8961511591,0</coordinates></Point>
      </Placemark>
	

      <Placemark>
	<styleUrl>#ys</styleUrl>
        <name>vsQ67qg13IN8</name>
        <Point><coordinates>-77.0312337935,38.8955462888,0</coordinates></Point>
      </Placemark>
	

      <Placemark>
	<styleUrl>#ys</styleUrl>
        <name>w4rAblSLoIRA</name>
        <Point><coordinates>-77.0275385046,38.8947409505,0</coordinates></Point>
      </Placemark>
	

      <Placemark>
	<styleUrl>#ys</styleUrl>
        <name>w9Ytd9MPcKic</name>
        <Point><coordinates>-77.032397736,38.890460309,0</coordinates></Point>
      </Placemark>
	

	      <Placemark>
		<name>wFijX2jkhwtp</name>
		<styleUrl>#rs</styleUrl>
		<Point><coordinates>-77.0339881635,38.8919706687,0</coordinates></Point>
		<description>d2hxwnssq7ss7g.cloudfront.net/wFijX2jkhwtp_cvt.mp4</description>
	      </Placemark>
		

      <Placemark>
	<styleUrl>#ys</styleUrl>
        <name>wOakONRRsFq4</name>
        <Point><coordinates>-77.0365301695,38.9003077228,0</coordinates></Point>
      </Placemark>
	

      <Placemark>
	<styleUrl>#ys</styleUrl>
        <name>wbNzvj8kq1i0</name>
        <Point><coordinates>-77.0351909294,38.9014683655,0</coordinates></Point>
      </Placemark>
	

      <Placemark>
	<styleUrl>#ys</styleUrl>
        <name>x6QX0a3oUxF7</name>
        <Point><coordinates>-77.0312911313,38.895368636,0</coordinates></Point>
      </Placemark>
	

      <Placemark>
	<styleUrl>#ys</styleUrl>
        <name>xBtnebciFY2J</name>
        <Point><coordinates>-77.0058090133,38.8905315379,0</coordinates></Point>
      </Placemark>
	

      <Placemark>
	<styleUrl>#ys</styleUrl>
        <name>xREPV4bqjPPM</name>
        <Point><coordinates>-77.0354423408,38.8921397678,0</coordinates></Point>
      </Placemark>
	

      <Placemark>
	<styleUrl>#ys</styleUrl>
        <name>xbzRZzo0fBJJ</name>
        <Point><coordinates>-77.0311627803,38.8956952661,0</coordinates></Point>
      </Placemark>
	

      <Placemark>
	<styleUrl>#ys</styleUrl>
        <name>xcd9QTwy90u8</name>
        <Point><coordinates>-77.032867548,38.898250033,0</coordinates></Point>
      </Placemark>
	

      <Placemark>
	<styleUrl>#ys</styleUrl>
        <name>xwnqKGnmIyH4</name>
        <Point><coordinates>-77.0113101358,38.8920276018,0</coordinates></Point>
      </Placemark>
	

	      <Placemark>
		<name>xy2JnbdsJG5q</name>
		<styleUrl>#rs</styleUrl>
		<Point><coordinates>-77.0102284946,38.8898509602,0</coordinates></Point>
		<description>d2hxwnssq7ss7g.cloudfront.net/xy2JnbdsJG5q_cvt.mp4</description>
	      </Placemark>
		

      <Placemark>
	<styleUrl>#ys</styleUrl>
        <name>yGrjHR5W33gR</name>
        <Point><coordinates>-77.0242539194,38.8896664733,0</coordinates></Point>
      </Placemark>
	

      <Placemark>
	<styleUrl>#ys</styleUrl>
        <name>ySO9aSEvs0Fx</name>
        <Point><coordinates>-77.0101026339,38.8898351,0</coordinates></Point>
      </Placemark>
	

      <Placemark>
	<styleUrl>#ys</styleUrl>
        <name>yVEOydyEobKU</name>
        <Point><coordinates>-77.029564416,38.8956969114,0</coordinates></Point>
      </Placemark>
	

      <Placemark>
	<styleUrl>#ys</styleUrl>
        <name>yhwj3W6hlWUL</name>
        <Point><coordinates>-77.0058419125,38.8904394176,0</coordinates></Point>
      </Placemark>
	

      <Placemark>
	<styleUrl>#ys</styleUrl>
        <name>yvWDEQeC0dlx</name>
        <Point><coordinates>-77.0297087155,38.8962312108,0</coordinates></Point>
      </Placemark>
	

      <Placemark>
	<styleUrl>#ys</styleUrl>
        <name>z1Dd4eQWsblX</name>
        <Point><coordinates>-77.0364994259,38.8917619017,0</coordinates></Point>
      </Placemark>
	

	      <Placemark>
		<name>z32a3bWM4IU5</name>
		<styleUrl>#rs</styleUrl>
		<Point><coordinates>-77.0110405978,38.8902780736,0</coordinates></Point>
		<description>d2hxwnssq7ss7g.cloudfront.net/z32a3bWM4IU5_cvt.mp4</description>
	      </Placemark>
		

      <Placemark>
	<styleUrl>#ys</styleUrl>
        <name>z5k3KbsVWe0V</name>
        <Point><coordinates>-77.0199888796,38.8929713556,0</coordinates></Point>
      </Placemark>
	

      <Placemark>
	<styleUrl>#ys</styleUrl>
        <name>zRtDzo7WPrrA</name>
        <Point><coordinates>-77.031442361,38.8958399052,0</coordinates></Point>
      </Placemark>
	

      <Placemark>
	<styleUrl>#ys</styleUrl>
        <name>zjoAIajvC3KO</name>
        <Point><coordinates>-77.0318346706,38.904447127,0</coordinates></Point>
      </Placemark>
	

      <Placemark>
	<styleUrl>#ys</styleUrl>
        <name>zs0EhDII1k3D</name>
        <Point><coordinates>-77.0313588258,38.8958612528,0</coordinates></Point>
      </Placemark>
	

      <Placemark>
	<styleUrl>#ys</styleUrl>
        <name>zvhAF87Dreod</name>
        <Point><coordinates>-77.0302024633,38.8958399582,0</coordinates></Point>
      </Placemark>
	

      <Placemark>
	<styleUrl>#ys</styleUrl>
        <name>0EG7IUYy1Vs5</name>
        <Point><coordinates>-77.0066368317,38.891944337,0</coordinates></Point>
      </Placemark>
	

      <Placemark>
	<styleUrl>#ys</styleUrl>
        <name>1BDzt8hvBi1t</name>
        <Point><coordinates>-77.0370971214,38.8922646747,0</coordinates></Point>
      </Placemark>
	

      <Placemark>
	<styleUrl>#ys</styleUrl>
        <name>1RPmgWDAIuve</name>
        <Point><coordinates>-77.0291160765,38.8961235321,0</coordinates></Point>
      </Placemark>
	

      <Placemark>
	<styleUrl>#ys</styleUrl>
        <name>1a7zUX6I32zJ</name>
        <Point><coordinates>-77.0319289622,38.8957514277,0</coordinates></Point>
      </Placemark>
	

      <Placemark>
	<styleUrl>#ys</styleUrl>
        <name>1sOo2OmBPUFp</name>
        <Point><coordinates>-77.0447355441,38.8828029711,0</coordinates></Point>
      </Placemark>
	

      <Placemark>
	<styleUrl>#ys</styleUrl>
        <name>1weMBnTsMDtH</name>
        <Point><coordinates>-77.0057462016,38.8907737161,0</coordinates></Point>
      </Placemark>
	

      <Placemark>
	<styleUrl>#ys</styleUrl>
        <name>26ewzKJt7rKx</name>
        <Point><coordinates>-77.0284639132,38.896196477,0</coordinates></Point>
      </Placemark>
	

	      <Placemark>
		<name>2SYR2Wjra3ic</name>
		<styleUrl>#rs</styleUrl>
		<Point><coordinates>-77.011579342,38.890041827,0</coordinates></Point>
		<description>d2hxwnssq7ss7g.cloudfront.net/2SYR2Wjra3ic_cvt.mp4</description>
	      </Placemark>
		

      <Placemark>
	<styleUrl>#ys</styleUrl>
        <name>2bujYLrW7vAX</name>
        <Point><coordinates>-77.0105105977,38.8904280737,0</coordinates></Point>
      </Placemark>
	

      <Placemark>
	<styleUrl>#ys</styleUrl>
        <name>38HXEQKtodCj</name>
        <Point><coordinates>-77.0302158718,38.8957234259,0</coordinates></Point>
      </Placemark>
	

      <Placemark>
	<styleUrl>#ys</styleUrl>
        <name>3ViaXA7t2cYc</name>
        <Point><coordinates>-77.010083318,38.8896758233,0</coordinates></Point>
      </Placemark>
	

      <Placemark>
	<styleUrl>#ys</styleUrl>
        <name>3ihTDHpLMAQ2</name>
        <Point><coordinates>-77.0318891944,38.8953716606,0</coordinates></Point>
      </Placemark>
	

      <Placemark>
	<styleUrl>#ys</styleUrl>
        <name>3pzrc2F2Rr0q</name>
        <Point><coordinates>-77.0143310625,38.8924085474,0</coordinates></Point>
      </Placemark>
	

      <Placemark>
	<styleUrl>#ys</styleUrl>
        <name>3r2OpqS2ghQX</name>
        <Point><coordinates>-77.027535248,38.8962028021,0</coordinates></Point>
      </Placemark>
	

	      <Placemark>
		<name>44VAasWbJ4Bh</name>
		<styleUrl>#rs</styleUrl>
		<Point><coordinates>-77.0079977702,38.8899602747,0</coordinates></Point>
		<description>d2hxwnssq7ss7g.cloudfront.net/44VAasWbJ4Bh_cvt.mp4</description>
	      </Placemark>
		

      <Placemark>
	<styleUrl>#ys</styleUrl>
        <name>4aoOZhGTjZOT</name>
        <Point><coordinates>-77.0320514509,38.8963289366,0</coordinates></Point>
      </Placemark>
	

      <Placemark>
	<styleUrl>#ys</styleUrl>
        <name>4hdNlRik5Pvp</name>
        <Point><coordinates>-77.0325392959,38.8998417229,0</coordinates></Point>
      </Placemark>
	

	      <Placemark>
		<name>4nZvifrR6Gb5</name>
		<styleUrl>#rs</styleUrl>
		<Point><coordinates>-77.0094371456,38.8905046507,0</coordinates></Point>
		<description>https://www.youtube.com/embed/s9MT76v7RiM</description>
	      </Placemark>
		

      <Placemark>
	<styleUrl>#ys</styleUrl>
        <name>4yeQyP2U1uvJ</name>
        <Point><coordinates>-77.0312811435,38.8960786189,0</coordinates></Point>
      </Placemark>
	

	      <Placemark>
		<name>55IZysHw38wO</name>
		<styleUrl>#rs</styleUrl>
		<Point><coordinates>-77.010139626,38.8898421702,0</coordinates></Point>
		<description>https://www.youtube.com/embed/JaD8DcKBFr8</description>
	      </Placemark>
		

      <Placemark>
	<styleUrl>#ys</styleUrl>
        <name>5GIdUYtOQZvC</name>
        <Point><coordinates>-77.0340481465,38.8912306809,0</coordinates></Point>
      </Placemark>
	

	      <Placemark>
		<name>5Q6ZwWfh6O2c</name>
		<styleUrl>#rs</styleUrl>
		<Point><coordinates>-77.030791297,38.8959687827,0</coordinates></Point>
		<description>d2hxwnssq7ss7g.cloudfront.net/5Q6ZwWfh6O2c_cvt.mp4</description>
	      </Placemark>
		

      <Placemark>
	<styleUrl>#ys</styleUrl>
        <name>5VlhibMfm0Me</name>
        <Point><coordinates>-77.0335588344,38.8970213982,0</coordinates></Point>
      </Placemark>
	

	      <Placemark>
		<name>5XnrzvP3TPee</name>
		<styleUrl>#rs</styleUrl>
		<Point><coordinates>-77.033669014,38.8942915284,0</coordinates></Point>
		<description>d2hxwnssq7ss7g.cloudfront.net/5XnrzvP3TPee_cvt.mp4</description>
	      </Placemark>
		

	      <Placemark>
		<name>5an2kTUFQs2t</name>
		<styleUrl>#rs</styleUrl>
		<Point><coordinates>-77.0088605817,38.8898980869,0</coordinates></Point>
		<description>https://www.youtube.com/embed/gylDJVghdbY</description>
	      </Placemark>
		

      <Placemark>
	<styleUrl>#ys</styleUrl>
        <name>6LqbCTY04h2S</name>
        <Point><coordinates>-77.0312357399,38.8959032449,0</coordinates></Point>
      </Placemark>
	

      <Placemark>
	<styleUrl>#ys</styleUrl>
        <name>6P3y0gnk2sZc</name>
        <Point><coordinates>-77.0350203211,38.8911178849,0</coordinates></Point>
      </Placemark>
	

      <Placemark>
	<styleUrl>#ys</styleUrl>
        <name>6ky2NpAvAjt6</name>
        <Point><coordinates>-77.02410681,38.8939343635,0</coordinates></Point>
      </Placemark>
	

      <Placemark>
	<styleUrl>#ys</styleUrl>
        <name>71qNiDmHjR7j</name>
        <Point><coordinates>-77.034757674,38.8889202183,0</coordinates></Point>
      </Placemark>
	

	      <Placemark>
		<name>73zMEInBFuro</name>
		<styleUrl>#rs</styleUrl>
		<Point><coordinates>-77.0310457473,38.8960332329,0</coordinates></Point>
		<description>d2hxwnssq7ss7g.cloudfront.net/73zMEInBFuro_cvt.mp4</description>
	      </Placemark>
		

      <Placemark>
	<styleUrl>#ys</styleUrl>
        <name>7Fu9YJVZmNkj</name>
        <Point><coordinates>-77.012347206,38.8905747503,0</coordinates></Point>
      </Placemark>
	

      <Placemark>
	<styleUrl>#ys</styleUrl>
        <name>7Gck0rY2zZJO</name>
        <Point><coordinates>-77.0335695786,38.8969520636,0</coordinates></Point>
      </Placemark>
	

	      <Placemark>
		<name>7dlSyXDWtlyA</name>
		<styleUrl>#rs</styleUrl>
		<Point><coordinates>-77.0101998418,38.8901622684,0</coordinates></Point>
		<description>d2hxwnssq7ss7g.cloudfront.net/7dlSyXDWtlyA_cvt.mp4</description>
	      </Placemark>
		

	      <Placemark>
		<name>7fckI1220tbu</name>
		<styleUrl>#rs</styleUrl>
		<Point><coordinates>-77.0103013038,38.8899387699,0</coordinates></Point>
		<description>https://www.youtube.com/embed/29_aiqsHO4k</description>
	      </Placemark>
		

      <Placemark>
	<styleUrl>#ys</styleUrl>
        <name>7lZbNvTpYzCg</name>
        <Point><coordinates>-77.0367990181,38.8891615329,0</coordinates></Point>
      </Placemark>
	

	      <Placemark>
		<name>83QmTetHJ5T5</name>
		<styleUrl>#rs</styleUrl>
		<Point><coordinates>-77.0364011,38.8913386637,0</coordinates></Point>
		<description>d2hxwnssq7ss7g.cloudfront.net/83QmTetHJ5T5_cvt.mp4</description>
	      </Placemark>
		

      <Placemark>
	<styleUrl>#ys</styleUrl>
        <name>86HZgxIZSNqS</name>
        <Point><coordinates>-77.0309704432,38.895747919,0</coordinates></Point>
      </Placemark>
	

	      <Placemark>
		<name>8KdEh2A5hBi1</name>
		<styleUrl>#rs</styleUrl>
		<Point><coordinates>-77.0102687559,38.889891319,0</coordinates></Point>
		<description>d2hxwnssq7ss7g.cloudfront.net/8KdEh2A5hBi1_cvt.mp4</description>
	      </Placemark>
		

      <Placemark>
	<styleUrl>#ys</styleUrl>
        <name>8cnLPzqkhOKD</name>
        <Point><coordinates>-77.0393187076,38.8961212123,0</coordinates></Point>
      </Placemark>
	

	      <Placemark>
		<name>8cSaamVcsMri</name>
		<styleUrl>#rs</styleUrl>
		<Point><coordinates>-77.0093129658,38.8902253928,0</coordinates></Point>
		<description>https://www.youtube.com/embed/rUlfaPrzdag</description>
	      </Placemark>
		

	      <Placemark>
		<name>8kxVYjg5WrBo</name>
		<styleUrl>#rs</styleUrl>
		<Point><coordinates>-77.0308218828,38.8956194459,0</coordinates></Point>
		<description>d2hxwnssq7ss7g.cloudfront.net/8kxVYjg5WrBo_cvt.mp4</description>
	      </Placemark>
		

      <Placemark>
	<styleUrl>#ys</styleUrl>
        <name>8sI3e6yy30eh</name>
        <Point><coordinates>-77.0059929733,38.8906655467,0</coordinates></Point>
      </Placemark>
	

      <Placemark>
	<styleUrl>#ys</styleUrl>
        <name>902GC5jacFN4</name>
        <Point><coordinates>-77.031278112,38.8955805579,0</coordinates></Point>
      </Placemark>
	

      <Placemark>
	<styleUrl>#ys</styleUrl>
        <name>95tJCDO2wZkX</name>
        <Point><coordinates>-77.0313890986,38.8960716038,0</coordinates></Point>
      </Placemark>
	

      <Placemark>
	<styleUrl>#ys</styleUrl>
        <name>9DsuarSCjv0c</name>
        <Point><coordinates>-77.0311085874,38.8953310237,0</coordinates></Point>
      </Placemark>
	

	      <Placemark>
		<name>9LbRR2Z0Z122</name>
		<styleUrl>#rs</styleUrl>
		<Point><coordinates>-77.036326166,38.8907536028,0</coordinates></Point>
		<description>d2hxwnssq7ss7g.cloudfront.net/9LbRR2Z0Z122_cvt.mp4</description>
	      </Placemark>
		

      <Placemark>
	<styleUrl>#ys</styleUrl>
        <name>9SqyFPPIxYy0</name>
        <Point><coordinates>-77.0314482587,38.8899307249,0</coordinates></Point>
      </Placemark>
	

	      <Placemark>
		<name>9YKTu0zdQL5F</name>
		<styleUrl>#rs</styleUrl>
		<Point><coordinates>-77.0111069232,38.8901344081,0</coordinates></Point>
		<description>d2hxwnssq7ss7g.cloudfront.net/9YKTu0zdQL5F_cvt.mp4</description>
	      </Placemark>
		

      <Placemark>
	<styleUrl>#ys</styleUrl>
        <name>9dW7FrFj9iK9</name>
        <Point><coordinates>-77.0085065639,38.8920341373,0</coordinates></Point>
      </Placemark>
	

      <Placemark>
	<styleUrl>#ys</styleUrl>
        <name>9wqTKJG0EIF3</name>
        <Point><coordinates>-77.0312227352,38.8957153088,0</coordinates></Point>
      </Placemark>
	

      <Placemark>
	<styleUrl>#ys</styleUrl>
        <name>A5fvZX1c5AVh</name>
        <Point><coordinates>-77.0058556075,38.8911230638,0</coordinates></Point>
      </Placemark>
	

	      <Placemark>
		<name>A8Jiah39MrVY</name>
		<styleUrl>#rs</styleUrl>
		<Point><coordinates>-77.0103625704,38.8899550073,0</coordinates></Point>
		<description>d2hxwnssq7ss7g.cloudfront.net/A8Jiah39MrVY_cvt.mp4</description>
	      </Placemark>
		

	      <Placemark>
		<name>AHlDHcmD03dQ</name>
		<styleUrl>#rs</styleUrl>
		<Point><coordinates>-77.0425627657,38.8560952807,0</coordinates></Point>
		<description>d2hxwnssq7ss7g.cloudfront.net/AHlDHcmD03dQ_cvt.mp4</description>
	      </Placemark>
		

      <Placemark>
	<styleUrl>#ys</styleUrl>
        <name>ALgpEzOj4DFZ</name>
        <Point><coordinates>-77.0423522515,38.8549696976,0</coordinates></Point>
      </Placemark>
	

	      <Placemark>
		<name>AYijYnzI0Gbr</name>
		<styleUrl>#rs</styleUrl>
		<Point><coordinates>-77.0072147867,38.8898273207,0</coordinates></Point>
		<description>https://www.youtube.com/embed/sQ5LeskZ2WY</description>
	      </Placemark>
		

	      <Placemark>
		<name>AwME4HLA6vtW</name>
		<styleUrl>#rs</styleUrl>
		<Point><coordinates>-77.0089270367,38.8905145998,0</coordinates></Point>
		<description>https://www.youtube.com/embed/Cky2qUrM1ww</description>
	      </Placemark>
		

      <Placemark>
	<styleUrl>#ys</styleUrl>
        <name>BOOcuvXupLJl</name>
        <Point><coordinates>-77.0121598215,38.8923222871,0</coordinates></Point>
      </Placemark>
	

      <Placemark>
	<styleUrl>#ys</styleUrl>
        <name>BVo7j7cX5sF9</name>
        <Point><coordinates>-77.0366419055,38.8917394206,0</coordinates></Point>
      </Placemark>
	

      <Placemark>
	<styleUrl>#ys</styleUrl>
        <name>BeeKNcPavU80</name>
        <Point><coordinates>-77.0280974139,38.89626485,0</coordinates></Point>
      </Placemark>
	

      <Placemark>
	<styleUrl>#ys</styleUrl>
        <name>BeehvsyVPyQa</name>
        <Point><coordinates>-77.0280573395,38.8953247667,0</coordinates></Point>
      </Placemark>
	

      <Placemark>
	<styleUrl>#ys</styleUrl>
        <name>Brci43iT8yMA</name>
        <Point><coordinates>-77.0322603161,38.8965578891,0</coordinates></Point>
      </Placemark>
	

      <Placemark>
	<styleUrl>#ys</styleUrl>
        <name>BziLuY5elmb1</name>
        <Point><coordinates>-77.0365214954,38.9012590495,0</coordinates></Point>
      </Placemark>
	

      <Placemark>
	<styleUrl>#ys</styleUrl>
        <name>C4IM4xTcxLWH</name>
        <Point><coordinates>-77.0109224206,38.889859847,0</coordinates></Point>
      </Placemark>
	

      <Placemark>
	<styleUrl>#ys</styleUrl>
        <name>C6tRQmnNnLw0</name>
        <Point><coordinates>-77.0350489161,38.8919314702,0</coordinates></Point>
      </Placemark>
	

      <Placemark>
	<styleUrl>#ys</styleUrl>
        <name>CP1b4tGB2AOd</name>
        <Point><coordinates>-77.0315604703,38.8960980437,0</coordinates></Point>
      </Placemark>
	

      <Placemark>
	<styleUrl>#ys</styleUrl>
        <name>CQtHtEEczheT</name>
        <Point><coordinates>-77.0151657165,38.8915532699,0</coordinates></Point>
      </Placemark>
	

      <Placemark>
	<styleUrl>#ys</styleUrl>
        <name>CWyeMEaKCWud</name>
        <Point><coordinates>-77.0364092978,38.8922318708,0</coordinates></Point>
      </Placemark>
	

      <Placemark>
	<styleUrl>#ys</styleUrl>
        <name>CiohAUaVwOfr</name>
        <Point><coordinates>-77.0361585418,38.8919410372,0</coordinates></Point>
      </Placemark>
	

      <Placemark>
	<styleUrl>#ys</styleUrl>
        <name>Cm9AtHkZ3ETV</name>
        <Point><coordinates>-77.0159541615,38.8918666959,0</coordinates></Point>
      </Placemark>
	

      <Placemark>
	<styleUrl>#ys</styleUrl>
        <name>Cnp8oLZN3MKt</name>
        <Point><coordinates>-77.0301852671,38.8958727815,0</coordinates></Point>
      </Placemark>
	

      <Placemark>
	<styleUrl>#ys</styleUrl>
        <name>CpGC5Hp2a2i8</name>
        <Point><coordinates>-77.0060310589,38.8904485537,0</coordinates></Point>
      </Placemark>
	

      <Placemark>
	<styleUrl>#ys</styleUrl>
        <name>D0VMVpXhlBfy</name>
        <Point><coordinates>-77.0303896725,38.8956721288,0</coordinates></Point>
      </Placemark>
	

      <Placemark>
	<styleUrl>#ys</styleUrl>
        <name>D4XPRR98Wy29</name>
        <Point><coordinates>-77.0108859894,38.8921734654,0</coordinates></Point>
      </Placemark>
	

      <Placemark>
	<styleUrl>#ys</styleUrl>
        <name>DAU0DKl3oD7T</name>
        <Point><coordinates>-77.0184316906,38.8894491659,0</coordinates></Point>
      </Placemark>
	

      <Placemark>
	<styleUrl>#ys</styleUrl>
        <name>DCPF0ZAUa2yQ</name>
        <Point><coordinates>-77.0059571646,38.8906246302,0</coordinates></Point>
      </Placemark>
	

	      <Placemark>
		<name>DFLm2As2pXc4</name>
		<styleUrl>#rs</styleUrl>
		<Point><coordinates>-77.0362671439,38.8906946489,0</coordinates></Point>
		<description>d2hxwnssq7ss7g.cloudfront.net/DFLm2As2pXc4_cvt.mp4</description>
	      </Placemark>
		

	      <Placemark>
		<name>DJzdPcAuKKwU</name>
		<styleUrl>#rs</styleUrl>
		<Point><coordinates>-77.0100218688,38.889959305,0</coordinates></Point>
		<description>d2hxwnssq7ss7g.cloudfront.net/DJzdPcAuKKwU_cvt.mp4</description>
	      </Placemark>
		

	      <Placemark>
		<name>DLj1sth1JqF4</name>
		<styleUrl>#rs</styleUrl>
		<Point><coordinates>-77.0105183521,38.889700906,0</coordinates></Point>
		<description>d2hxwnssq7ss7g.cloudfront.net/DLj1sth1JqF4_cvt.mp4</description>
	      </Placemark>
		

	      <Placemark>
		<name>DX3RBg66JdtR</name>
		<styleUrl>#rs</styleUrl>
		<Point><coordinates>-77.0104215399,38.8899590061,0</coordinates></Point>
		<description>d2hxwnssq7ss7g.cloudfront.net/DX3RBg66JdtR_cvt.mp4</description>
	      </Placemark>
		

	      <Placemark>
		<name>DYap5yt4pNXI</name>
		<styleUrl>#rs</styleUrl>
		<Point><coordinates>-77.027854746,38.8917672115,0</coordinates></Point>
		<description>d2hxwnssq7ss7g.cloudfront.net/DYap5yt4pNXI_cvt.mp4</description>
	      </Placemark>
		

	      <Placemark>
		<name>DcZD1fcn6YU7</name>
		<styleUrl>#rs</styleUrl>
		<Point><coordinates>-77.0361960406,38.8913635646,0</coordinates></Point>
		<description>d2hxwnssq7ss7g.cloudfront.net/DcZD1fcn6YU7_cvt.mp4</description>
	      </Placemark>
		

      <Placemark>
	<styleUrl>#ys</styleUrl>
        <name>DiKhFb1FGn6N</name>
        <Point><coordinates>-77.0304676366,38.8958901022,0</coordinates></Point>
      </Placemark>
	

      <Placemark>
	<styleUrl>#ys</styleUrl>
        <name>DzTb5lFGVF6I</name>
        <Point><coordinates>-77.0101357933,38.8903033468,0</coordinates></Point>
      </Placemark>
	

      <Placemark>
	<styleUrl>#ys</styleUrl>
        <name>DzeD4Ejxz367</name>
        <Point><coordinates>-77.0306239731,38.8955564192,0</coordinates></Point>
      </Placemark>
	

      <Placemark>
	<styleUrl>#ys</styleUrl>
        <name>E7rMe7HFf1hv</name>
        <Point><coordinates>-77.0312023804,38.8955398857,0</coordinates></Point>
      </Placemark>
	

      <Placemark>
	<styleUrl>#ys</styleUrl>
        <name>ECMDGMW3Pjan</name>
        <Point><coordinates>-77.0058704529,38.8905479086,0</coordinates></Point>
      </Placemark>
	

      <Placemark>
	<styleUrl>#ys</styleUrl>
        <name>ESfAgmdjcQeq</name>
        <Point><coordinates>-77.0303829882,38.8957755319,0</coordinates></Point>
      </Placemark>
	

      <Placemark>
	<styleUrl>#ys</styleUrl>
        <name>ET84WGA65PjB</name>
        <Point><coordinates>-77.0211399283,38.8893024915,0</coordinates></Point>
      </Placemark>
	

      <Placemark>
	<styleUrl>#ys</styleUrl>
        <name>EkraGnpX5ip0</name>
        <Point><coordinates>-77.0269651091,38.8960815124,0</coordinates></Point>
      </Placemark>
	

      <Placemark>
	<styleUrl>#ys</styleUrl>
        <name>Ey3OOsstRwBa</name>
        <Point><coordinates>-77.0247591827,38.8895616774,0</coordinates></Point>
      </Placemark>
	

      <Placemark>
	<styleUrl>#ys</styleUrl>
        <name>F5ZPe3cpnqSJ</name>
        <Point><coordinates>-77.0352314079,38.890208981,0</coordinates></Point>
      </Placemark>
	

      <Placemark>
	<styleUrl>#ys</styleUrl>
        <name>FBUcJsfDlONq</name>
        <Point><coordinates>-77.0251296061,38.8944120326,0</coordinates></Point>
      </Placemark>
	

	      <Placemark>
		<name>FMRCveJNHxfP</name>
		<styleUrl>#rs</styleUrl>
		<Point><coordinates>-77.0361268727,38.9017142997,0</coordinates></Point>
		<description>d2hxwnssq7ss7g.cloudfront.net/FMRCveJNHxfP_cvt.mp4</description>
	      </Placemark>
		

      <Placemark>
	<styleUrl>#ys</styleUrl>
        <name>FfajlshynACj</name>
        <Point><coordinates>-77.032567347,38.8886949206,0</coordinates></Point>
      </Placemark>
	

	      <Placemark>
		<name>FkvvrM19RjN7</name>
		<styleUrl>#rs</styleUrl>
		<Point><coordinates>-77.0358417685,38.8913392439,0</coordinates></Point>
		<description>d2hxwnssq7ss7g.cloudfront.net/FkvvrM19RjN7_cvt.mp4</description>
	      </Placemark>
		

      <Placemark>
	<styleUrl>#ys</styleUrl>
        <name>Ft0ICmLvzRz4</name>
        <Point><coordinates>-77.0366878911,38.9013704639,0</coordinates></Point>
      </Placemark>
	

      <Placemark>
	<styleUrl>#ys</styleUrl>
        <name>GTR3KbbVfdwk</name>
        <Point><coordinates>-77.0056761029,38.8906436668,0</coordinates></Point>
      </Placemark>
	

      <Placemark>
	<styleUrl>#ys</styleUrl>
        <name>GnZMl7lNyL94</name>
        <Point><coordinates>-77.0283491221,38.8898315778,0</coordinates></Point>
      </Placemark>
	

      <Placemark>
	<styleUrl>#ys</styleUrl>
        <name>Gr6kYtDnzi1s</name>
        <Point><coordinates>-77.0347383188,38.9035408235,0</coordinates></Point>
      </Placemark>
	

      <Placemark>
	<styleUrl>#ys</styleUrl>
        <name>Gtk64oaW4epY</name>
        <Point><coordinates>-77.031294375,38.8959668014,0</coordinates></Point>
      </Placemark>
	

      <Placemark>
	<styleUrl>#ys</styleUrl>
        <name>GyeWnZzI7iE1</name>
        <Point><coordinates>-77.0347262564,38.8889138197,0</coordinates></Point>
      </Placemark>
	

      <Placemark>
	<styleUrl>#ys</styleUrl>
        <name>H2Qb5uDQLTAf</name>
        <Point><coordinates>-77.0310618466,38.8958593224,0</coordinates></Point>
      </Placemark>
	

	      <Placemark>
		<name>HSEUpO8N6K1f</name>
		<styleUrl>#rs</styleUrl>
		<Point><coordinates>-77.0105897688,38.8902723423,0</coordinates></Point>
		<description>https://www.youtube.com/embed/ZJrOZ8KFsmc</description>
	      </Placemark>
		

      <Placemark>
	<styleUrl>#ys</styleUrl>
        <name>HlQkqJT5gxWp</name>
        <Point><coordinates>-77.005632352,38.8913099152,0</coordinates></Point>
      </Placemark>
	

	      <Placemark>
		<name>HrcmWO0Y0FW3</name>
		<styleUrl>#rs</styleUrl>
		<Point><coordinates>-77.0201860018,38.8924734483,0</coordinates></Point>
		<description>d2hxwnssq7ss7g.cloudfront.net/HrcmWO0Y0FW3_cvt.mp4</description>
	      </Placemark>
		

      <Placemark>
	<styleUrl>#ys</styleUrl>
        <name>IBrEVWHnY1c3</name>
        <Point><coordinates>-77.0345807595,38.8919782256,0</coordinates></Point>
      </Placemark>
	

      <Placemark>
	<styleUrl>#ys</styleUrl>
        <name>IDijozQkiiVl</name>
        <Point><coordinates>-77.0360322072,38.8902497416,0</coordinates></Point>
      </Placemark>
	

      <Placemark>
	<styleUrl>#ys</styleUrl>
        <name>IEScWmDsSfKX</name>
        <Point><coordinates>-77.0363066558,38.8917341995,0</coordinates></Point>
      </Placemark>
	

      <Placemark>
	<styleUrl>#ys</styleUrl>
        <name>IROwtVofuVw4</name>
        <Point><coordinates>-77.011629294,38.892051721,0</coordinates></Point>
      </Placemark>
	

      <Placemark>
	<styleUrl>#ys</styleUrl>
        <name>IXXozalWpAae</name>
        <Point><coordinates>-77.030844846,38.895877419,0</coordinates></Point>
      </Placemark>
	

      <Placemark>
	<styleUrl>#ys</styleUrl>
        <name>Ia20GqUqvh9k</name>
        <Point><coordinates>-77.0098863066,38.892273772,0</coordinates></Point>
      </Placemark>
	

      <Placemark>
	<styleUrl>#ys</styleUrl>
        <name>Iin9xIPQZYQX</name>
        <Point><coordinates>-77.0269252519,38.8959527957,0</coordinates></Point>
      </Placemark>
	

      <Placemark>
	<styleUrl>#ys</styleUrl>
        <name>IuMVNw3XkH1p</name>
        <Point><coordinates>-77.0199638973,38.9285563342,0</coordinates></Point>
      </Placemark>
	

      <Placemark>
	<styleUrl>#ys</styleUrl>
        <name>J9TJV1bMMk53</name>
        <Point><coordinates>-77.0304006891,38.8958381358,0</coordinates></Point>
      </Placemark>
	

      <Placemark>
	<styleUrl>#ys</styleUrl>
        <name>JhUoK1Rdy3K8</name>
        <Point><coordinates>-77.0128639917,38.8921965548,0</coordinates></Point>
      </Placemark>
	

      <Placemark>
	<styleUrl>#ys</styleUrl>
        <name>JoubRbZa0wl6</name>
        <Point><coordinates>-77.0297279554,38.8953104019,0</coordinates></Point>
      </Placemark>
	

	      <Placemark>
		<name>JprqeYSCfUQ9</name>
		<styleUrl>#rs</styleUrl>
		<Point><coordinates>-77.026934631,38.8995471654,0</coordinates></Point>
		<description>d2hxwnssq7ss7g.cloudfront.net/JprqeYSCfUQ9_cvt.mp4</description>
	      </Placemark>
		

      <Placemark>
	<styleUrl>#ys</styleUrl>
        <name>Jv72BT882p08</name>
        <Point><coordinates>-77.0311610674,38.8959585428,0</coordinates></Point>
      </Placemark>
	

	      <Placemark>
		<name>JyUmRm5aCM8o</name>
		<styleUrl>#rs</styleUrl>
		<Point><coordinates>-77.036841267,38.8916388106,0</coordinates></Point>
		<description>d2hxwnssq7ss7g.cloudfront.net/JyUmRm5aCM8o_cvt.mp4</description>
	      </Placemark>
		

      <Placemark>
	<styleUrl>#ys</styleUrl>
        <name>K9nOucHf1gtH</name>
        <Point><coordinates>-77.0291260144,38.8955134415,0</coordinates></Point>
      </Placemark>
	

	      <Placemark>
		<name>KAu8c8e4lbDG</name>
		<styleUrl>#rs</styleUrl>
		<Point><coordinates>-77.0103769972,38.8896444828,0</coordinates></Point>
		<description>https://www.youtube.com/embed/S5zRXZkg93s</description>
	      </Placemark>
		

      <Placemark>
	<styleUrl>#ys</styleUrl>
        <name>KItOt5iQSOuj</name>
        <Point><coordinates>-77.0058413367,38.8912789005,0</coordinates></Point>
      </Placemark>
	

      <Placemark>
	<styleUrl>#ys</styleUrl>
        <name>KV3C0aILOv81</name>
        <Point><coordinates>-77.0300373158,38.8958447916,0</coordinates></Point>
      </Placemark>
	

      <Placemark>
	<styleUrl>#ys</styleUrl>
        <name>KZbcwplSl4W6</name>
        <Point><coordinates>-77.0476587463,38.8889100615,0</coordinates></Point>
      </Placemark>
	

      <Placemark>
	<styleUrl>#ys</styleUrl>
        <name>KkjqjRDRtyD3</name>
        <Point><coordinates>-77.0311182222,38.8958207665,0</coordinates></Point>
      </Placemark>
	

      <Placemark>
	<styleUrl>#ys</styleUrl>
        <name>KpzfaZYAbLmL</name>
        <Point><coordinates>-77.0301652048,38.8956526899,0</coordinates></Point>
      </Placemark>
	

      <Placemark>
	<styleUrl>#ys</styleUrl>
        <name>KtZnJUmqLPjc</name>
        <Point><coordinates>-77.0303648734,38.8955973878,0</coordinates></Point>
      </Placemark>
	

      <Placemark>
	<styleUrl>#ys</styleUrl>
        <name>L6ZOl2DCvn7S</name>
        <Point><coordinates>-77.0355662057,38.8903937206,0</coordinates></Point>
      </Placemark>
	

      <Placemark>
	<styleUrl>#ys</styleUrl>
        <name>LD2l7k9rkDET</name>
        <Point><coordinates>-77.0133508532,38.8908282894,0</coordinates></Point>
      </Placemark>
	

      <Placemark>
	<styleUrl>#ys</styleUrl>
        <name>LD3lVuEGs2i6</name>
        <Point><coordinates>-77.0161019359,38.8918393918,0</coordinates></Point>
      </Placemark>
	

	      <Placemark>
		<name>LD5GrQx0MtsI</name>
		<styleUrl>#rs</styleUrl>
		<Point><coordinates>-77.010296933,38.8896643984,0</coordinates></Point>
		<description>https://www.youtube.com/embed/VQ2DgfJU5Fw</description>
	      </Placemark>
		

      <Placemark>
	<styleUrl>#ys</styleUrl>
        <name>LGnAih5j52Fi</name>
        <Point><coordinates>-77.0271571673,38.8949246327,0</coordinates></Point>
      </Placemark>
	

      <Placemark>
	<styleUrl>#ys</styleUrl>
        <name>LI6BLHYHu3Lw</name>
        <Point><coordinates>-77.0313351769,38.8958027108,0</coordinates></Point>
      </Placemark>
	

      <Placemark>
	<styleUrl>#ys</styleUrl>
        <name>LNmOCjuf1l43</name>
        <Point><coordinates>-77.0061483032,38.8907708369,0</coordinates></Point>
      </Placemark>